{
    "CZE": {
        "id": 58,
        "name": "Czech Republic",
        "iso3": "CZE",
        "iso2": "CZ",
        "phone_code": "420",
        "capital": "Prague",
        "currency": "CZK",
        "native": "캛esk치 republika",
        "region": "Europe",
        "subregion": "Eastern Europe",
        "emoji": "游뻟릖",
        "emojiU": "U+1F1E8 U+1F1FF",
        "states": [
            {
                "id": 4627,
                "name": "Bene코ov District",
                "state_code": "201",
                "cities": []
            },
            {
                "id": 4620,
                "name": "Beroun District",
                "state_code": "202",
                "cities": []
            },
            {
                "id": 4615,
                "name": "Blansko District",
                "state_code": "641",
                "cities": []
            },
            {
                "id": 4542,
                "name": "B콏eclav District",
                "state_code": "644",
                "cities": []
            },
            {
                "id": 4568,
                "name": "Brno-City District",
                "state_code": "642",
                "cities": []
            },
            {
                "id": 4545,
                "name": "Brno-Country District",
                "state_code": "643",
                "cities": []
            },
            {
                "id": 4644,
                "name": "Brunt치l District",
                "state_code": "801",
                "cities": []
            },
            {
                "id": 4554,
                "name": "Central Bohemian Region",
                "state_code": "20",
                "cities": [
                    {
                        "id": 22112,
                        "name": "Bakov nad Jizerou",
                        "latitude": "50.48230000",
                        "longitude": "14.94149000"
                    },
                    {
                        "id": 22202,
                        "name": "B캩l치 pod Bezd캩zem",
                        "latitude": "50.50121000",
                        "longitude": "14.80418000"
                    },
                    {
                        "id": 22124,
                        "name": "Ben치tky nad Jizerou",
                        "latitude": "50.29085000",
                        "longitude": "14.82343000"
                    },
                    {
                        "id": 22121,
                        "name": "Bene코ov",
                        "latitude": "49.78162000",
                        "longitude": "14.68697000"
                    },
                    {
                        "id": 22126,
                        "name": "Beroun",
                        "latitude": "49.96382000",
                        "longitude": "14.07200000"
                    },
                    {
                        "id": 22141,
                        "name": "Bohut칤n",
                        "latitude": "49.65551000",
                        "longitude": "13.94389000"
                    },
                    {
                        "id": 22158,
                        "name": "Brand칳s nad Labem-Star치 Boleslav",
                        "latitude": "50.18709000",
                        "longitude": "14.66326000"
                    },
                    {
                        "id": 22160,
                        "name": "Brand칳sek",
                        "latitude": "50.18923000",
                        "longitude": "14.16199000"
                    },
                    {
                        "id": 22206,
                        "name": "B콏eznice",
                        "latitude": "49.55763000",
                        "longitude": "13.95063000"
                    },
                    {
                        "id": 22181,
                        "name": "Bu코t캩hrad",
                        "latitude": "50.15594000",
                        "longitude": "14.18897000"
                    },
                    {
                        "id": 22189,
                        "name": "By코ice",
                        "latitude": "50.31044000",
                        "longitude": "14.61136000"
                    },
                    {
                        "id": 22185,
                        "name": "Byst콏ice",
                        "latitude": "49.73213000",
                        "longitude": "14.66740000"
                    },
                    {
                        "id": 23398,
                        "name": "캛치slav",
                        "latitude": "49.91099000",
                        "longitude": "15.38972000"
                    },
                    {
                        "id": 23364,
                        "name": "캛echtice",
                        "latitude": "49.62403000",
                        "longitude": "15.04824000"
                    },
                    {
                        "id": 23369,
                        "name": "캛el치kovice",
                        "latitude": "50.16038000",
                        "longitude": "14.75005000"
                    },
                    {
                        "id": 23382,
                        "name": "캛er캜any",
                        "latitude": "49.85293000",
                        "longitude": "14.70299000"
                    },
                    {
                        "id": 22215,
                        "name": "Cerhenice",
                        "latitude": "50.07127000",
                        "longitude": "15.07203000"
                    },
                    {
                        "id": 23372,
                        "name": "캛erno코ice",
                        "latitude": "49.96008000",
                        "longitude": "14.31979000"
                    },
                    {
                        "id": 23380,
                        "name": "캛erven칠 Pe캜ky",
                        "latitude": "49.97822000",
                        "longitude": "15.20856000"
                    },
                    {
                        "id": 23391,
                        "name": "캛esk칳 Brod",
                        "latitude": "50.07420000",
                        "longitude": "14.86081000"
                    },
                    {
                        "id": 22241,
                        "name": "Chy켿ava",
                        "latitude": "50.02736000",
                        "longitude": "14.07398000"
                    },
                    {
                        "id": 22246,
                        "name": "C칤rkvice",
                        "latitude": "49.94560000",
                        "longitude": "15.33505000"
                    },
                    {
                        "id": 22247,
                        "name": "C칤tov",
                        "latitude": "50.37225000",
                        "longitude": "14.39813000"
                    },
                    {
                        "id": 22251,
                        "name": "Davle",
                        "latitude": "49.89218000",
                        "longitude": "14.40037000"
                    },
                    {
                        "id": 22255,
                        "name": "Divi코ov",
                        "latitude": "49.78849000",
                        "longitude": "14.87579000"
                    },
                    {
                        "id": 22264,
                        "name": "Dob콏ichovice",
                        "latitude": "49.92749000",
                        "longitude": "14.27469000"
                    },
                    {
                        "id": 22266,
                        "name": "Dob콏칤코",
                        "latitude": "49.78113000",
                        "longitude": "14.16717000"
                    },
                    {
                        "id": 22260,
                        "name": "Dobrovice",
                        "latitude": "50.36933000",
                        "longitude": "14.96233000"
                    },
                    {
                        "id": 22268,
                        "name": "Doksy",
                        "latitude": "50.11900000",
                        "longitude": "14.04782000"
                    },
                    {
                        "id": 22273,
                        "name": "Doln칤 Be콏kovice",
                        "latitude": "50.39313000",
                        "longitude": "14.45024000"
                    },
                    {
                        "id": 22276,
                        "name": "Doln칤 Bousov",
                        "latitude": "50.43825000",
                        "longitude": "15.12812000"
                    },
                    {
                        "id": 22278,
                        "name": "Doln칤 B콏e쬬ny",
                        "latitude": "49.96321000",
                        "longitude": "14.45850000"
                    },
                    {
                        "id": 22386,
                        "name": "Horn칤 Po캜aply",
                        "latitude": "50.42440000",
                        "longitude": "14.38993000"
                    },
                    {
                        "id": 22395,
                        "name": "Horom캩콏ice",
                        "latitude": "50.13173000",
                        "longitude": "14.33879000"
                    },
                    {
                        "id": 22408,
                        "name": "Ho콏ovice",
                        "latitude": "49.83597000",
                        "longitude": "13.90268000"
                    },
                    {
                        "id": 22399,
                        "name": "Hostivice",
                        "latitude": "50.08158000",
                        "longitude": "14.25856000"
                    },
                    {
                        "id": 22401,
                        "name": "Hostomice",
                        "latitude": "49.82526000",
                        "longitude": "14.04560000"
                    },
                    {
                        "id": 22405,
                        "name": "Hovor캜ovice",
                        "latitude": "50.17866000",
                        "longitude": "14.51789000"
                    },
                    {
                        "id": 22415,
                        "name": "Hradi코tko",
                        "latitude": "49.86828000",
                        "longitude": "14.40935000"
                    },
                    {
                        "id": 22442,
                        "name": "H콏ebe캜",
                        "latitude": "50.13595000",
                        "longitude": "14.16446000"
                    },
                    {
                        "id": 22432,
                        "name": "Hudlice",
                        "latitude": "49.96096000",
                        "longitude": "13.97063000"
                    },
                    {
                        "id": 22441,
                        "name": "H칳skov",
                        "latitude": "49.99072000",
                        "longitude": "14.05055000"
                    },
                    {
                        "id": 22465,
                        "name": "Jene캜",
                        "latitude": "50.08730000",
                        "longitude": "14.21482000"
                    },
                    {
                        "id": 22466,
                        "name": "Jesenice",
                        "latitude": "49.96814000",
                        "longitude": "14.51350000"
                    },
                    {
                        "id": 22486,
                        "name": "J칤lov칠 u Prahy",
                        "latitude": "49.89545000",
                        "longitude": "14.49333000"
                    },
                    {
                        "id": 22474,
                        "name": "Jince",
                        "latitude": "49.78624000",
                        "longitude": "13.97867000"
                    },
                    {
                        "id": 22478,
                        "name": "Jirny",
                        "latitude": "50.11578000",
                        "longitude": "14.69923000"
                    },
                    {
                        "id": 22505,
                        "name": "Ka캜ice",
                        "latitude": "50.16261000",
                        "longitude": "13.98815000"
                    },
                    {
                        "id": 22489,
                        "name": "Kamenice",
                        "latitude": "49.90151000",
                        "longitude": "14.58242000"
                    },
                    {
                        "id": 22492,
                        "name": "Kamenn칠 콯ehrovice",
                        "latitude": "50.12697000",
                        "longitude": "14.01809000"
                    },
                    {
                        "id": 22493,
                        "name": "Kamenn칳 P콏칤voz",
                        "latitude": "49.86299000",
                        "longitude": "14.50339000"
                    },
                    {
                        "id": 22510,
                        "name": "Kladno",
                        "latitude": "50.14734000",
                        "longitude": "14.10285000"
                    },
                    {
                        "id": 22513,
                        "name": "Klecany",
                        "latitude": "50.17599000",
                        "longitude": "14.41148000"
                    },
                    {
                        "id": 22517,
                        "name": "Klobuky",
                        "latitude": "50.29401000",
                        "longitude": "13.98748000"
                    },
                    {
                        "id": 22522,
                        "name": "Kn캩쬸ost",
                        "latitude": "50.48917000",
                        "longitude": "15.03829000"
                    },
                    {
                        "id": 22529,
                        "name": "Kol칤n",
                        "latitude": "50.02806000",
                        "longitude": "15.19980000"
                    },
                    {
                        "id": 22531,
                        "name": "Kom치rov",
                        "latitude": "49.80650000",
                        "longitude": "13.85636000"
                    },
                    {
                        "id": 22536,
                        "name": "Kosmonosy",
                        "latitude": "50.43850000",
                        "longitude": "14.93000000"
                    },
                    {
                        "id": 22537,
                        "name": "Kosova Hora",
                        "latitude": "49.65414000",
                        "longitude": "14.47173000"
                    },
                    {
                        "id": 22541,
                        "name": "Kostelec nad 캛ern칳mi Lesy",
                        "latitude": "49.99403000",
                        "longitude": "14.85922000"
                    },
                    {
                        "id": 22539,
                        "name": "Kostelec nad Labem",
                        "latitude": "50.22653000",
                        "longitude": "14.58552000"
                    },
                    {
                        "id": 22544,
                        "name": "Kou콏im",
                        "latitude": "50.00306000",
                        "longitude": "14.97703000"
                    },
                    {
                        "id": 22555,
                        "name": "Kralupy nad Vltavou",
                        "latitude": "50.24107000",
                        "longitude": "14.31149000"
                    },
                    {
                        "id": 22566,
                        "name": "Kr치l콢v Dv콢r",
                        "latitude": "49.94981000",
                        "longitude": "14.03445000"
                    },
                    {
                        "id": 22567,
                        "name": "Kr치sn치 Hora nad Vltavou",
                        "latitude": "49.60461000",
                        "longitude": "14.27742000"
                    },
                    {
                        "id": 22587,
                        "name": "K콏inec",
                        "latitude": "50.26449000",
                        "longitude": "15.13782000"
                    },
                    {
                        "id": 22576,
                        "name": "Kutn치 Hora",
                        "latitude": "49.94839000",
                        "longitude": "15.26816000"
                    },
                    {
                        "id": 22661,
                        "name": "L치ny",
                        "latitude": "50.12471000",
                        "longitude": "13.95041000"
                    },
                    {
                        "id": 22612,
                        "name": "Lib캜ice nad Vltavou",
                        "latitude": "50.19778000",
                        "longitude": "14.36385000"
                    },
                    {
                        "id": 22665,
                        "name": "L칤beznice",
                        "latitude": "50.19198000",
                        "longitude": "14.49357000"
                    },
                    {
                        "id": 22606,
                        "name": "Libice nad Cidlinou",
                        "latitude": "50.12677000",
                        "longitude": "15.17820000"
                    },
                    {
                        "id": 22607,
                        "name": "Libi코",
                        "latitude": "50.27417000",
                        "longitude": "14.50240000"
                    },
                    {
                        "id": 22610,
                        "name": "Libu코칤n",
                        "latitude": "50.16819000",
                        "longitude": "14.05458000"
                    },
                    {
                        "id": 22628,
                        "name": "Lochovice",
                        "latitude": "49.85318000",
                        "longitude": "13.98126000"
                    },
                    {
                        "id": 22629,
                        "name": "Lod캩nice",
                        "latitude": "49.99486000",
                        "longitude": "14.15785000"
                    },
                    {
                        "id": 22638,
                        "name": "Lou캜e켿",
                        "latitude": "50.28537000",
                        "longitude": "15.02049000"
                    },
                    {
                        "id": 22654,
                        "name": "Lu코t캩nice",
                        "latitude": "50.32296000",
                        "longitude": "14.93667000"
                    },
                    {
                        "id": 22656,
                        "name": "Lu쬰c nad Vltavou",
                        "latitude": "50.32138000",
                        "longitude": "14.40022000"
                    },
                    {
                        "id": 22658,
                        "name": "Lu쬹치",
                        "latitude": "50.12377000",
                        "longitude": "13.77004000"
                    },
                    {
                        "id": 22660,
                        "name": "Lys치 nad Labem",
                        "latitude": "50.20143000",
                        "longitude": "14.83281000"
                    },
                    {
                        "id": 22736,
                        "name": "M캩ln칤k",
                        "latitude": "50.35050000",
                        "longitude": "14.47411000"
                    },
                    {
                        "id": 22747,
                        "name": "M캩코ice",
                        "latitude": "50.19799000",
                        "longitude": "14.51992000"
                    },
                    {
                        "id": 22738,
                        "name": "M캩stec Kr치lov칠",
                        "latitude": "50.20718000",
                        "longitude": "15.29758000"
                    },
                    {
                        "id": 22693,
                        "name": "Mil칤n",
                        "latitude": "49.63192000",
                        "longitude": "14.04600000"
                    },
                    {
                        "id": 22691,
                        "name": "Milovice",
                        "latitude": "50.22596000",
                        "longitude": "14.88863000"
                    },
                    {
                        "id": 22701,
                        "name": "Mlad치 Boleslav",
                        "latitude": "50.41135000",
                        "longitude": "14.90318000"
                    },
                    {
                        "id": 22704,
                        "name": "Mnichovice",
                        "latitude": "49.93601000",
                        "longitude": "14.70907000"
                    },
                    {
                        "id": 22705,
                        "name": "Mnichovo Hradi코t캩",
                        "latitude": "50.52720000",
                        "longitude": "14.97134000"
                    },
                    {
                        "id": 22707,
                        "name": "Mn칤코ek pod Brdy",
                        "latitude": "49.86650000",
                        "longitude": "14.26176000"
                    },
                    {
                        "id": 22748,
                        "name": "M코eno",
                        "latitude": "50.43809000",
                        "longitude": "14.63250000"
                    },
                    {
                        "id": 22732,
                        "name": "Muka콏ov",
                        "latitude": "49.99115000",
                        "longitude": "14.74155000"
                    },
                    {
                        "id": 22751,
                        "name": "Na캜eradec",
                        "latitude": "49.61018000",
                        "longitude": "14.90633000"
                    },
                    {
                        "id": 22756,
                        "name": "Nehvizdy",
                        "latitude": "50.13056000",
                        "longitude": "14.72993000"
                    },
                    {
                        "id": 22758,
                        "name": "Nelahozeves",
                        "latitude": "50.26148000",
                        "longitude": "14.29881000"
                    },
                    {
                        "id": 22760,
                        "name": "Neratovice",
                        "latitude": "50.25926000",
                        "longitude": "14.51759000"
                    },
                    {
                        "id": 22763,
                        "name": "Netvo콏ice",
                        "latitude": "49.81569000",
                        "longitude": "14.51827000"
                    },
                    {
                        "id": 22764,
                        "name": "Neveklov",
                        "latitude": "49.75373000",
                        "longitude": "14.53291000"
                    },
                    {
                        "id": 22768,
                        "name": "Ni쬭or",
                        "latitude": "49.99995000",
                        "longitude": "14.00237000"
                    },
                    {
                        "id": 22782,
                        "name": "Nov칠 Stra코ec칤",
                        "latitude": "50.15272000",
                        "longitude": "13.90043000"
                    },
                    {
                        "id": 22789,
                        "name": "Nov칳 Kn칤n",
                        "latitude": "49.78800000",
                        "longitude": "14.29355000"
                    },
                    {
                        "id": 22791,
                        "name": "Nymburk",
                        "latitude": "50.18605000",
                        "longitude": "15.04167000"
                    },
                    {
                        "id": 22801,
                        "name": "Obecnice",
                        "latitude": "49.71615000",
                        "longitude": "13.94731000"
                    },
                    {
                        "id": 22803,
                        "name": "Odolena Voda",
                        "latitude": "50.23341000",
                        "longitude": "14.41078000"
                    },
                    {
                        "id": 22806,
                        "name": "Okres Bene코ov",
                        "latitude": "49.66667000",
                        "longitude": "14.75000000"
                    },
                    {
                        "id": 22807,
                        "name": "Okres Beroun",
                        "latitude": "49.83333000",
                        "longitude": "14.08333000"
                    },
                    {
                        "id": 22828,
                        "name": "Okres Kladno",
                        "latitude": "50.16667000",
                        "longitude": "14.16667000"
                    },
                    {
                        "id": 22830,
                        "name": "Okres Kol칤n",
                        "latitude": "50.00000000",
                        "longitude": "15.00000000"
                    },
                    {
                        "id": 22832,
                        "name": "Okres Kutn치 Hora",
                        "latitude": "49.83333000",
                        "longitude": "15.25000000"
                    },
                    {
                        "id": 22838,
                        "name": "Okres M캩ln칤k",
                        "latitude": "50.33333000",
                        "longitude": "14.50000000"
                    },
                    {
                        "id": 22836,
                        "name": "Okres Mlad치 Boleslav",
                        "latitude": "50.41667000",
                        "longitude": "14.91667000"
                    },
                    {
                        "id": 22840,
                        "name": "Okres Nymburk",
                        "latitude": "50.16667000",
                        "longitude": "15.16667000"
                    },
                    {
                        "id": 22851,
                        "name": "Okres Praha-v칳chod",
                        "latitude": "50.11768000",
                        "longitude": "14.70836000"
                    },
                    {
                        "id": 22852,
                        "name": "Okres Praha-z치pad",
                        "latitude": "49.83333000",
                        "longitude": "14.33333000"
                    },
                    {
                        "id": 22856,
                        "name": "Okres P콏칤bram",
                        "latitude": "49.66667000",
                        "longitude": "14.16667000"
                    },
                    {
                        "id": 22857,
                        "name": "Okres Rakovn칤k",
                        "latitude": "50.10000000",
                        "longitude": "13.70000000"
                    },
                    {
                        "id": 22889,
                        "name": "Ond콏ejov",
                        "latitude": "49.90461000",
                        "longitude": "14.78420000"
                    },
                    {
                        "id": 22922,
                        "name": "Pavl칤kov",
                        "latitude": "50.05599000",
                        "longitude": "13.73636000"
                    },
                    {
                        "id": 22923,
                        "name": "Pchery",
                        "latitude": "50.19378000",
                        "longitude": "14.11782000"
                    },
                    {
                        "id": 22932,
                        "name": "Pe캜ky",
                        "latitude": "50.09043000",
                        "longitude": "15.03017000"
                    },
                    {
                        "id": 22929,
                        "name": "Petrovice",
                        "latitude": "49.55426000",
                        "longitude": "14.33737000"
                    },
                    {
                        "id": 22939,
                        "name": "Pla켿any",
                        "latitude": "50.05010000",
                        "longitude": "15.02944000"
                    },
                    {
                        "id": 22947,
                        "name": "Pod캩brady",
                        "latitude": "50.14242000",
                        "longitude": "15.11881000"
                    },
                    {
                        "id": 22966,
                        "name": "Po콏칤캜any",
                        "latitude": "50.10806000",
                        "longitude": "14.91818000"
                    },
                    {
                        "id": 22967,
                        "name": "Po콏칤캜칤 nad S치zavou",
                        "latitude": "49.83895000",
                        "longitude": "14.67446000"
                    },
                    {
                        "id": 22958,
                        "name": "Postupice",
                        "latitude": "49.72798000",
                        "longitude": "14.77722000"
                    },
                    {
                        "id": 23002,
                        "name": "P콏erov nad Labem",
                        "latitude": "50.16027000",
                        "longitude": "14.82502000"
                    },
                    {
                        "id": 23008,
                        "name": "P콏칤bram",
                        "latitude": "49.68988000",
                        "longitude": "14.01043000"
                    },
                    {
                        "id": 22986,
                        "name": "Pr콢honice",
                        "latitude": "49.99962000",
                        "longitude": "14.55017000"
                    },
                    {
                        "id": 22987,
                        "name": "Ps치ry",
                        "latitude": "49.93622000",
                        "longitude": "14.51276000"
                    },
                    {
                        "id": 22991,
                        "name": "Py코ely",
                        "latitude": "49.87678000",
                        "longitude": "14.67713000"
                    },
                    {
                        "id": 23019,
                        "name": "Rakovn칤k",
                        "latitude": "50.10370000",
                        "longitude": "13.73340000"
                    },
                    {
                        "id": 23402,
                        "name": "콎evnice",
                        "latitude": "49.91395000",
                        "longitude": "14.23589000"
                    },
                    {
                        "id": 23403,
                        "name": "콎evni캜ov",
                        "latitude": "50.18489000",
                        "longitude": "13.80823000"
                    },
                    {
                        "id": 23405,
                        "name": "콎e",
                        "latitude": "50.17734000",
                        "longitude": "14.35733000"
                    },
                    {
                        "id": 23406,
                        "name": "콎칤캜any",
                        "latitude": "49.99168000",
                        "longitude": "14.65427000"
                    },
                    {
                        "id": 23044,
                        "name": "Ro쮃끄lovice",
                        "latitude": "50.30476000",
                        "longitude": "15.16962000"
                    },
                    {
                        "id": 23042,
                        "name": "Ro쬸it치l pod T콏em코칤nem",
                        "latitude": "49.60196000",
                        "longitude": "13.86430000"
                    },
                    {
                        "id": 23041,
                        "name": "Roztoky",
                        "latitude": "50.15841000",
                        "longitude": "14.39760000"
                    },
                    {
                        "id": 23047,
                        "name": "Rudn치",
                        "latitude": "50.03502000",
                        "longitude": "14.23435000"
                    },
                    {
                        "id": 23059,
                        "name": "Sadsk치",
                        "latitude": "50.13596000",
                        "longitude": "14.98633000"
                    },
                    {
                        "id": 23154,
                        "name": "S치zava",
                        "latitude": "49.87164000",
                        "longitude": "14.89674000"
                    },
                    {
                        "id": 23066,
                        "name": "Sedl캜any",
                        "latitude": "49.66057000",
                        "longitude": "14.42664000"
                    },
                    {
                        "id": 23062,
                        "name": "Sedlec",
                        "latitude": "49.96391000",
                        "longitude": "15.28846000"
                    },
                    {
                        "id": 23413,
                        "name": "만stajovice",
                        "latitude": "50.10845000",
                        "longitude": "14.68013000"
                    },
                    {
                        "id": 23077,
                        "name": "Slan칳",
                        "latitude": "50.23046000",
                        "longitude": "14.08693000"
                    },
                    {
                        "id": 23085,
                        "name": "Sme캜no",
                        "latitude": "50.18844000",
                        "longitude": "14.04037000"
                    },
                    {
                        "id": 23100,
                        "name": "Star치 Hu콘",
                        "latitude": "49.78225000",
                        "longitude": "14.19735000"
                    },
                    {
                        "id": 23112,
                        "name": "Star칳 Kol칤n",
                        "latitude": "50.00977000",
                        "longitude": "15.29388000"
                    },
                    {
                        "id": 23426,
                        "name": "맚캩chovice",
                        "latitude": "49.85109000",
                        "longitude": "14.40543000"
                    },
                    {
                        "id": 23117,
                        "name": "Stochov",
                        "latitude": "50.14631000",
                        "longitude": "13.96345000"
                    },
                    {
                        "id": 23121,
                        "name": "Stran캜ice",
                        "latitude": "49.94811000",
                        "longitude": "14.67745000"
                    },
                    {
                        "id": 23140,
                        "name": "Suchdol",
                        "latitude": "49.95247000",
                        "longitude": "15.16651000"
                    },
                    {
                        "id": 23165,
                        "name": "Ti코ice",
                        "latitude": "50.26980000",
                        "longitude": "14.55411000"
                    },
                    {
                        "id": 23199,
                        "name": "T콏ebotov",
                        "latitude": "49.97244000",
                        "longitude": "14.29127000"
                    },
                    {
                        "id": 23174,
                        "name": "Trhov칳 맚캩p치nov",
                        "latitude": "49.71147000",
                        "longitude": "15.01356000"
                    },
                    {
                        "id": 23183,
                        "name": "Tuchlovice",
                        "latitude": "50.13803000",
                        "longitude": "13.99115000"
                    },
                    {
                        "id": 23184,
                        "name": "Tuchom캩콏ice",
                        "latitude": "50.13543000",
                        "longitude": "14.28218000"
                    },
                    {
                        "id": 23192,
                        "name": "T칳nec nad Labem",
                        "latitude": "50.04202000",
                        "longitude": "15.35836000"
                    },
                    {
                        "id": 23193,
                        "name": "T칳nec nad S치zavou",
                        "latitude": "49.83348000",
                        "longitude": "14.58983000"
                    },
                    {
                        "id": 23209,
                        "name": "Uhl칤콏sk칠 Janovice",
                        "latitude": "49.88019000",
                        "longitude": "15.06481000"
                    },
                    {
                        "id": 23210,
                        "name": "Unho코콘",
                        "latitude": "50.08535000",
                        "longitude": "14.13007000"
                    },
                    {
                        "id": 23360,
                        "name": "칔valy",
                        "latitude": "50.07394000",
                        "longitude": "14.73080000"
                    },
                    {
                        "id": 23229,
                        "name": "Velim",
                        "latitude": "50.05965000",
                        "longitude": "15.10711000"
                    },
                    {
                        "id": 23232,
                        "name": "Velk치 Dobr치",
                        "latitude": "50.10964000",
                        "longitude": "14.06980000"
                    },
                    {
                        "id": 23247,
                        "name": "Velk칠 Popovice",
                        "latitude": "49.92252000",
                        "longitude": "14.63934000"
                    },
                    {
                        "id": 23249,
                        "name": "Velk칠 P콏칤lepy",
                        "latitude": "50.16050000",
                        "longitude": "14.31447000"
                    },
                    {
                        "id": 23252,
                        "name": "Velk칳 Osek",
                        "latitude": "50.09867000",
                        "longitude": "15.18629000"
                    },
                    {
                        "id": 23256,
                        "name": "Veltruby",
                        "latitude": "50.07059000",
                        "longitude": "15.18454000"
                    },
                    {
                        "id": 23257,
                        "name": "Veltrusy",
                        "latitude": "50.27046000",
                        "longitude": "14.32857000"
                    },
                    {
                        "id": 23258,
                        "name": "Velvary",
                        "latitude": "50.28152000",
                        "longitude": "14.23616000"
                    },
                    {
                        "id": 23263,
                        "name": "Vestec",
                        "latitude": "49.98050000",
                        "longitude": "14.50487000"
                    },
                    {
                        "id": 23272,
                        "name": "Vina콏ice",
                        "latitude": "50.17585000",
                        "longitude": "14.09106000"
                    },
                    {
                        "id": 23281,
                        "name": "Vla코im",
                        "latitude": "49.70632000",
                        "longitude": "14.89881000"
                    },
                    {
                        "id": 23290,
                        "name": "Votice",
                        "latitude": "49.64013000",
                        "longitude": "14.63809000"
                    },
                    {
                        "id": 23293,
                        "name": "Vran칠 nad Vltavou",
                        "latitude": "49.93585000",
                        "longitude": "14.37706000"
                    },
                    {
                        "id": 23301,
                        "name": "Vrdy",
                        "latitude": "49.92153000",
                        "longitude": "15.47243000"
                    },
                    {
                        "id": 23318,
                        "name": "V코enory",
                        "latitude": "49.92883000",
                        "longitude": "14.30392000"
                    },
                    {
                        "id": 23321,
                        "name": "V코etaty",
                        "latitude": "50.28187000",
                        "longitude": "14.59297000"
                    },
                    {
                        "id": 23324,
                        "name": "Zaje캜ov",
                        "latitude": "49.77435000",
                        "longitude": "13.84072000"
                    },
                    {
                        "id": 23351,
                        "name": "Z치smuky",
                        "latitude": "49.95470000",
                        "longitude": "15.03058000"
                    },
                    {
                        "id": 23331,
                        "name": "Zbraslavice",
                        "latitude": "49.81179000",
                        "longitude": "15.18319000"
                    },
                    {
                        "id": 23458,
                        "name": "콯캞치r",
                        "latitude": "50.54366000",
                        "longitude": "15.08034000"
                    },
                    {
                        "id": 23334,
                        "name": "Zdiby",
                        "latitude": "50.16799000",
                        "longitude": "14.45118000"
                    },
                    {
                        "id": 23335,
                        "name": "Zdice",
                        "latitude": "49.91207000",
                        "longitude": "13.97747000"
                    },
                    {
                        "id": 23441,
                        "name": "콯ebr치k",
                        "latitude": "49.87574000",
                        "longitude": "13.89735000"
                    },
                    {
                        "id": 23338,
                        "name": "Zelene캜",
                        "latitude": "50.13362000",
                        "longitude": "14.66070000"
                    },
                    {
                        "id": 23453,
                        "name": "콯i쬰lice",
                        "latitude": "50.13192000",
                        "longitude": "15.39320000"
                    },
                    {
                        "id": 23454,
                        "name": "콯leby",
                        "latitude": "49.88958000",
                        "longitude": "15.48853000"
                    },
                    {
                        "id": 23342,
                        "name": "Zlonice",
                        "latitude": "50.28750000",
                        "longitude": "14.09214000"
                    },
                    {
                        "id": 23345,
                        "name": "Zru캜 nad S치zavou",
                        "latitude": "49.74010000",
                        "longitude": "15.10606000"
                    },
                    {
                        "id": 23347,
                        "name": "Zvole",
                        "latitude": "49.93466000",
                        "longitude": "14.41769000"
                    }
                ]
            },
            {
                "id": 4633,
                "name": "캛esk치 L칤pa District",
                "state_code": "511",
                "cities": []
            },
            {
                "id": 4556,
                "name": "캛esk칠 Bud캩jovice District",
                "state_code": "311",
                "cities": []
            },
            {
                "id": 4543,
                "name": "캛esk칳 Krumlov District",
                "state_code": "312",
                "cities": []
            },
            {
                "id": 4573,
                "name": "Cheb District",
                "state_code": "411",
                "cities": []
            },
            {
                "id": 4553,
                "name": "Chomutov District",
                "state_code": "422",
                "cities": []
            },
            {
                "id": 4634,
                "name": "Chrudim District",
                "state_code": "531",
                "cities": []
            },
            {
                "id": 4609,
                "name": "D캩캜칤n District",
                "state_code": "421",
                "cities": []
            },
            {
                "id": 4641,
                "name": "Doma쬷ice District",
                "state_code": "321",
                "cities": []
            },
            {
                "id": 4559,
                "name": "Fr칳dek-M칤stek District",
                "state_code": "802",
                "cities": []
            },
            {
                "id": 4611,
                "name": "Havl칤캜k콢v Brod District",
                "state_code": "631",
                "cities": []
            },
            {
                "id": 4561,
                "name": "Hodon칤n District",
                "state_code": "645",
                "cities": []
            },
            {
                "id": 4577,
                "name": "Horn칤 Po캜ernice",
                "state_code": "120",
                "cities": []
            },
            {
                "id": 4580,
                "name": "Hradec Kr치lov칠 District",
                "state_code": "521",
                "cities": []
            },
            {
                "id": 4614,
                "name": "Hradec Kr치lov칠 Region",
                "state_code": "52",
                "cities": [
                    {
                        "id": 22109,
                        "name": "Albrechtice nad Orlic칤",
                        "latitude": "50.13979000",
                        "longitude": "16.06437000"
                    },
                    {
                        "id": 22198,
                        "name": "B칤l치 T콏eme코n치",
                        "latitude": "50.44465000",
                        "longitude": "15.74101000"
                    },
                    {
                        "id": 22148,
                        "name": "Borohr치dek",
                        "latitude": "50.09777000",
                        "longitude": "16.09326000"
                    },
                    {
                        "id": 22169,
                        "name": "Broumov",
                        "latitude": "50.58566000",
                        "longitude": "16.33181000"
                    },
                    {
                        "id": 23362,
                        "name": "캛astolovice",
                        "latitude": "50.12910000",
                        "longitude": "16.18128000"
                    },
                    {
                        "id": 23370,
                        "name": "캛ernilov",
                        "latitude": "50.26265000",
                        "longitude": "15.92254000"
                    },
                    {
                        "id": 23374,
                        "name": "캛erno쬴ce",
                        "latitude": "50.31863000",
                        "longitude": "15.87403000"
                    },
                    {
                        "id": 23381,
                        "name": "캛erven칳 Kostelec",
                        "latitude": "50.47626000",
                        "longitude": "16.09289000"
                    },
                    {
                        "id": 23385,
                        "name": "캛esk치 Skalice",
                        "latitude": "50.39467000",
                        "longitude": "16.04276000"
                    },
                    {
                        "id": 23389,
                        "name": "캛esk칠 Mezi콏칤캜칤",
                        "latitude": "50.28680000",
                        "longitude": "16.04428000"
                    },
                    {
                        "id": 22221,
                        "name": "Chlumec nad Cidlinou",
                        "latitude": "50.15440000",
                        "longitude": "15.46026000"
                    },
                    {
                        "id": 22261,
                        "name": "Dobru코ka",
                        "latitude": "50.29201000",
                        "longitude": "16.16001000"
                    },
                    {
                        "id": 22298,
                        "name": "Doln칤 캛ernilov",
                        "latitude": "50.26110000",
                        "longitude": "15.96107000"
                    },
                    {
                        "id": 22306,
                        "name": "Doudleby nad Orlic칤",
                        "latitude": "50.10742000",
                        "longitude": "16.26131000"
                    },
                    {
                        "id": 22319,
                        "name": "Dv콢r Kr치lov칠 nad Labem",
                        "latitude": "50.43172000",
                        "longitude": "15.81402000"
                    },
                    {
                        "id": 22407,
                        "name": "Ho콏ice",
                        "latitude": "50.36609000",
                        "longitude": "15.63183000"
                    },
                    {
                        "id": 22398,
                        "name": "Hostinn칠",
                        "latitude": "50.54066000",
                        "longitude": "15.72334000"
                    },
                    {
                        "id": 22412,
                        "name": "Hradec Kr치lov칠",
                        "latitude": "50.20923000",
                        "longitude": "15.83277000"
                    },
                    {
                        "id": 22422,
                        "name": "Hronov",
                        "latitude": "50.47968000",
                        "longitude": "16.18230000"
                    },
                    {
                        "id": 22456,
                        "name": "Jarom캩콏",
                        "latitude": "50.35620000",
                        "longitude": "15.92136000"
                    },
                    {
                        "id": 22481,
                        "name": "Ji캜칤n",
                        "latitude": "50.43723000",
                        "longitude": "15.35162000"
                    },
                    {
                        "id": 22533,
                        "name": "Kopidlno",
                        "latitude": "50.33085000",
                        "longitude": "15.27029000"
                    },
                    {
                        "id": 22540,
                        "name": "Kostelec nad Orlic칤",
                        "latitude": "50.12267000",
                        "longitude": "16.21319000"
                    },
                    {
                        "id": 22579,
                        "name": "Kvasiny",
                        "latitude": "50.21250000",
                        "longitude": "16.26323000"
                    },
                    {
                        "id": 22663,
                        "name": "L치zn캩 B캩lohrad",
                        "latitude": "50.42874000",
                        "longitude": "15.58269000"
                    },
                    {
                        "id": 22611,
                        "name": "Lib치켿",
                        "latitude": "50.37542000",
                        "longitude": "15.21684000"
                    },
                    {
                        "id": 22668,
                        "name": "Machov",
                        "latitude": "50.49927000",
                        "longitude": "16.27690000"
                    },
                    {
                        "id": 22673,
                        "name": "Mal칠 Svato켿ovice",
                        "latitude": "50.53395000",
                        "longitude": "16.04978000"
                    },
                    {
                        "id": 22684,
                        "name": "Mezim캩st칤",
                        "latitude": "50.62461000",
                        "longitude": "16.24207000"
                    },
                    {
                        "id": 22703,
                        "name": "Mlad칠 Buky",
                        "latitude": "50.60643000",
                        "longitude": "15.83348000"
                    },
                    {
                        "id": 22726,
                        "name": "Mostek",
                        "latitude": "50.48623000",
                        "longitude": "15.69622000"
                    },
                    {
                        "id": 22792,
                        "name": "N치chod",
                        "latitude": "50.41670000",
                        "longitude": "16.16289000"
                    },
                    {
                        "id": 22752,
                        "name": "Nechanice",
                        "latitude": "50.23737000",
                        "longitude": "15.63276000"
                    },
                    {
                        "id": 22774,
                        "name": "Nov치 Paka",
                        "latitude": "50.49449000",
                        "longitude": "15.51503000"
                    },
                    {
                        "id": 22779,
                        "name": "Nov칠 M캩sto nad Metuj칤",
                        "latitude": "50.34456000",
                        "longitude": "16.15147000"
                    },
                    {
                        "id": 22786,
                        "name": "Nov칳 Byd쬺v",
                        "latitude": "50.24150000",
                        "longitude": "15.49082000"
                    },
                    {
                        "id": 22820,
                        "name": "Okres Hradec Kr치lov칠",
                        "latitude": "50.25000000",
                        "longitude": "15.66667000"
                    },
                    {
                        "id": 22825,
                        "name": "Okres Ji캜칤n",
                        "latitude": "50.41667000",
                        "longitude": "15.41667000"
                    },
                    {
                        "id": 22841,
                        "name": "Okres N치chod",
                        "latitude": "50.41667000",
                        "longitude": "16.16667000"
                    },
                    {
                        "id": 22859,
                        "name": "Okres Rychnov nad Kn캩쬹ou",
                        "latitude": "50.23333000",
                        "longitude": "16.28333000"
                    },
                    {
                        "id": 22866,
                        "name": "Okres Trutnov",
                        "latitude": "50.58333000",
                        "longitude": "15.83333000"
                    },
                    {
                        "id": 22894,
                        "name": "Opo캜no",
                        "latitude": "50.26742000",
                        "longitude": "16.11480000"
                    },
                    {
                        "id": 22906,
                        "name": "Ostrom캩콏",
                        "latitude": "50.37246000",
                        "longitude": "15.54949000"
                    },
                    {
                        "id": 22924,
                        "name": "Pecka",
                        "latitude": "50.48034000",
                        "longitude": "15.60822000"
                    },
                    {
                        "id": 22933,
                        "name": "Piln칤kov",
                        "latitude": "50.53247000",
                        "longitude": "15.82020000"
                    },
                    {
                        "id": 22951,
                        "name": "Police nad Metuj칤",
                        "latitude": "50.53687000",
                        "longitude": "16.23350000"
                    },
                    {
                        "id": 22998,
                        "name": "P콏edm캩콏ice nad Labem",
                        "latitude": "50.25633000",
                        "longitude": "15.81556000"
                    },
                    {
                        "id": 22983,
                        "name": "Provodov-맖nov",
                        "latitude": "50.38711000",
                        "longitude": "16.10797000"
                    },
                    {
                        "id": 23016,
                        "name": "Radvanice",
                        "latitude": "50.56745000",
                        "longitude": "16.06172000"
                    },
                    {
                        "id": 23031,
                        "name": "Rokytnice v Orlick칳ch Hor치ch",
                        "latitude": "50.16473000",
                        "longitude": "16.46567000"
                    },
                    {
                        "id": 23045,
                        "name": "Rtyn캩 v Podkrkono코칤",
                        "latitude": "50.50523000",
                        "longitude": "16.07187000"
                    },
                    {
                        "id": 23048,
                        "name": "Rudn칤k",
                        "latitude": "50.59517000",
                        "longitude": "15.73362000"
                    },
                    {
                        "id": 23053,
                        "name": "Rychnov nad Kn캩쬹ou",
                        "latitude": "50.16284000",
                        "longitude": "16.27488000"
                    },
                    {
                        "id": 23075,
                        "name": "Skuhrov nad B캩lou",
                        "latitude": "50.22946000",
                        "longitude": "16.29230000"
                    },
                    {
                        "id": 23086,
                        "name": "Smidary",
                        "latitude": "50.29146000",
                        "longitude": "15.47725000"
                    },
                    {
                        "id": 23087,
                        "name": "Smi콏ice",
                        "latitude": "50.29978000",
                        "longitude": "15.86508000"
                    },
                    {
                        "id": 23090,
                        "name": "Sobotka",
                        "latitude": "50.46741000",
                        "longitude": "15.17619000"
                    },
                    {
                        "id": 23095,
                        "name": "Solnice",
                        "latitude": "50.20366000",
                        "longitude": "16.23762000"
                    },
                    {
                        "id": 23419,
                        "name": "맗indler콢v Ml칳n",
                        "latitude": "50.72615000",
                        "longitude": "15.60944000"
                    },
                    {
                        "id": 23101,
                        "name": "Star치 Paka",
                        "latitude": "50.51032000",
                        "longitude": "15.49444000"
                    },
                    {
                        "id": 23109,
                        "name": "Star칠 Nechanice",
                        "latitude": "50.24298000",
                        "longitude": "15.61787000"
                    },
                    {
                        "id": 23136,
                        "name": "St캩쬰ry",
                        "latitude": "50.21572000",
                        "longitude": "15.74831000"
                    },
                    {
                        "id": 23151,
                        "name": "Svoboda nad 칔pou",
                        "latitude": "50.62596000",
                        "longitude": "15.81648000"
                    },
                    {
                        "id": 23161,
                        "name": "Teplice nad Metuj칤",
                        "latitude": "50.59332000",
                        "longitude": "16.17026000"
                    },
                    {
                        "id": 23197,
                        "name": "T콏ebechovice pod Orebem",
                        "latitude": "50.20097000",
                        "longitude": "15.99223000"
                    },
                    {
                        "id": 23181,
                        "name": "Trutnov",
                        "latitude": "50.56101000",
                        "longitude": "15.91270000"
                    },
                    {
                        "id": 23194,
                        "name": "T칳ni코t캩 nad Orlic칤",
                        "latitude": "50.15136000",
                        "longitude": "16.07770000"
                    },
                    {
                        "id": 23357,
                        "name": "칔pice",
                        "latitude": "50.51237000",
                        "longitude": "16.01607000"
                    },
                    {
                        "id": 23219,
                        "name": "Valdice",
                        "latitude": "50.45501000",
                        "longitude": "15.38488000"
                    },
                    {
                        "id": 23222,
                        "name": "Vamberk",
                        "latitude": "50.11756000",
                        "longitude": "16.29067000"
                    },
                    {
                        "id": 23248,
                        "name": "Velk칠 Po콏칤캜칤",
                        "latitude": "50.46177000",
                        "longitude": "16.18931000"
                    },
                    {
                        "id": 23250,
                        "name": "Velk칠 Svato켿ovice",
                        "latitude": "50.53164000",
                        "longitude": "16.02853000"
                    },
                    {
                        "id": 23300,
                        "name": "Vrchlab칤",
                        "latitude": "50.62697000",
                        "longitude": "15.60937000"
                    },
                    {
                        "id": 23320,
                        "name": "V코estary",
                        "latitude": "50.25660000",
                        "longitude": "15.75983000"
                    },
                    {
                        "id": 23436,
                        "name": "콯acl칠콏",
                        "latitude": "50.66329000",
                        "longitude": "15.91063000"
                    },
                    {
                        "id": 23323,
                        "name": "Zadn칤 Mostek",
                        "latitude": "50.49670000",
                        "longitude": "15.69804000"
                    },
                    {
                        "id": 23443,
                        "name": "콯eleznice",
                        "latitude": "50.47274000",
                        "longitude": "15.38459000"
                    }
                ]
            },
            {
                "id": 4612,
                "name": "Jablonec nad Nisou District",
                "state_code": "512",
                "cities": []
            },
            {
                "id": 4625,
                "name": "Jesen칤k District",
                "state_code": "711",
                "cities": []
            },
            {
                "id": 4640,
                "name": "Ji캜칤n District",
                "state_code": "522",
                "cities": []
            },
            {
                "id": 4613,
                "name": "Jihlava District",
                "state_code": "632",
                "cities": []
            },
            {
                "id": 4624,
                "name": "Jind콏ich콢v Hradec District",
                "state_code": "313",
                "cities": []
            },
            {
                "id": 4604,
                "name": "Karlovy Vary District",
                "state_code": "412",
                "cities": []
            },
            {
                "id": 4581,
                "name": "Karlovy Vary Region",
                "state_code": "41",
                "cities": [
                    {
                        "id": 22106,
                        "name": "Abertamy",
                        "latitude": "50.36874000",
                        "longitude": "12.81826000"
                    },
                    {
                        "id": 22110,
                        "name": "A코",
                        "latitude": "50.22387000",
                        "longitude": "12.19499000"
                    },
                    {
                        "id": 22137,
                        "name": "Bochov",
                        "latitude": "50.14872000",
                        "longitude": "13.05227000"
                    },
                    {
                        "id": 22209,
                        "name": "B콏ezov치",
                        "latitude": "50.14557000",
                        "longitude": "12.64996000"
                    },
                    {
                        "id": 22178,
                        "name": "Bukovany",
                        "latitude": "50.16632000",
                        "longitude": "12.57265000"
                    },
                    {
                        "id": 22217,
                        "name": "Cheb",
                        "latitude": "50.07963000",
                        "longitude": "12.37392000"
                    },
                    {
                        "id": 22224,
                        "name": "Chodov",
                        "latitude": "50.24018000",
                        "longitude": "12.74551000"
                    },
                    {
                        "id": 22248,
                        "name": "Dalovice",
                        "latitude": "50.24779000",
                        "longitude": "12.89581000"
                    },
                    {
                        "id": 22292,
                        "name": "Doln칤 Rychnov",
                        "latitude": "50.16462000",
                        "longitude": "12.64507000"
                    },
                    {
                        "id": 22299,
                        "name": "Doln칤 콯andov",
                        "latitude": "50.01794000",
                        "longitude": "12.55101000"
                    },
                    {
                        "id": 22326,
                        "name": "Franti코kovy L치zn캩",
                        "latitude": "50.12033000",
                        "longitude": "12.35174000"
                    },
                    {
                        "id": 22337,
                        "name": "Habartov",
                        "latitude": "50.18297000",
                        "longitude": "12.55054000"
                    },
                    {
                        "id": 22346,
                        "name": "Hazlov",
                        "latitude": "50.15634000",
                        "longitude": "12.27238000"
                    },
                    {
                        "id": 22388,
                        "name": "Horn칤 Slavkov",
                        "latitude": "50.13863000",
                        "longitude": "12.80758000"
                    },
                    {
                        "id": 22416,
                        "name": "Hranice",
                        "latitude": "50.30459000",
                        "longitude": "12.17577000"
                    },
                    {
                        "id": 22425,
                        "name": "Hrozn캩t칤n",
                        "latitude": "50.30940000",
                        "longitude": "12.87180000"
                    },
                    {
                        "id": 22484,
                        "name": "J치chymov",
                        "latitude": "50.35846000",
                        "longitude": "12.93465000"
                    },
                    {
                        "id": 22498,
                        "name": "Karlovy Vary",
                        "latitude": "50.23271000",
                        "longitude": "12.87117000"
                    },
                    {
                        "id": 22518,
                        "name": "Kl치코ter",
                        "latitude": "49.96762000",
                        "longitude": "12.87623000"
                    },
                    {
                        "id": 22556,
                        "name": "Kraslice",
                        "latitude": "50.32372000",
                        "longitude": "12.51747000"
                    },
                    {
                        "id": 22581,
                        "name": "Kyn코perk nad Oh콏칤",
                        "latitude": "50.11893000",
                        "longitude": "12.53027000"
                    },
                    {
                        "id": 22664,
                        "name": "L치zn캩 Kyn쭀art",
                        "latitude": "50.01058000",
                        "longitude": "12.62474000"
                    },
                    {
                        "id": 22630,
                        "name": "Loket",
                        "latitude": "50.18600000",
                        "longitude": "12.75405000"
                    },
                    {
                        "id": 22633,
                        "name": "Lomnice",
                        "latitude": "50.21174000",
                        "longitude": "12.63267000"
                    },
                    {
                        "id": 22644,
                        "name": "Luby",
                        "latitude": "50.25248000",
                        "longitude": "12.40595000"
                    },
                    {
                        "id": 22676,
                        "name": "Mari치nsk칠 L치zn캩",
                        "latitude": "49.96459000",
                        "longitude": "12.70118000"
                    },
                    {
                        "id": 22681,
                        "name": "Merkl칤n",
                        "latitude": "50.32808000",
                        "longitude": "12.86350000"
                    },
                    {
                        "id": 22740,
                        "name": "M캩sto",
                        "latitude": "49.97997000",
                        "longitude": "12.86432000"
                    },
                    {
                        "id": 22757,
                        "name": "Nejdek",
                        "latitude": "50.32242000",
                        "longitude": "12.72936000"
                    },
                    {
                        "id": 22775,
                        "name": "Nov치 Role",
                        "latitude": "50.27092000",
                        "longitude": "12.78422000"
                    },
                    {
                        "id": 22781,
                        "name": "Nov칠 Sedlo",
                        "latitude": "50.20647000",
                        "longitude": "12.73800000"
                    },
                    {
                        "id": 22812,
                        "name": "Okres Cheb",
                        "latitude": "50.08333000",
                        "longitude": "12.50000000"
                    },
                    {
                        "id": 22826,
                        "name": "Okres Karlovy Vary",
                        "latitude": "50.16667000",
                        "longitude": "13.00000000"
                    },
                    {
                        "id": 22861,
                        "name": "Okres Sokolov",
                        "latitude": "50.21667000",
                        "longitude": "12.63333000"
                    },
                    {
                        "id": 22887,
                        "name": "Olov칤",
                        "latitude": "50.25113000",
                        "longitude": "12.55877000"
                    },
                    {
                        "id": 22907,
                        "name": "Ostrov",
                        "latitude": "50.30592000",
                        "longitude": "12.93907000"
                    },
                    {
                        "id": 22940,
                        "name": "Plesn치",
                        "latitude": "50.22070000",
                        "longitude": "12.34669000"
                    },
                    {
                        "id": 23036,
                        "name": "Rotava",
                        "latitude": "50.29627000",
                        "longitude": "12.57341000"
                    },
                    {
                        "id": 23058,
                        "name": "Sadov",
                        "latitude": "50.26711000",
                        "longitude": "12.89708000"
                    },
                    {
                        "id": 23073,
                        "name": "Skaln치",
                        "latitude": "50.17030000",
                        "longitude": "12.36144000"
                    },
                    {
                        "id": 23094,
                        "name": "Sokolov",
                        "latitude": "50.18130000",
                        "longitude": "12.64010000"
                    },
                    {
                        "id": 23147,
                        "name": "Svatava",
                        "latitude": "50.19223000",
                        "longitude": "12.62524000"
                    },
                    {
                        "id": 23170,
                        "name": "Tou쬴m",
                        "latitude": "50.06049000",
                        "longitude": "12.98506000"
                    },
                    {
                        "id": 23233,
                        "name": "Velk치 Hle캞sebe",
                        "latitude": "49.96151000",
                        "longitude": "12.66763000"
                    },
                    {
                        "id": 23274,
                        "name": "Vint칤콏ov",
                        "latitude": "50.23382000",
                        "longitude": "12.71748000"
                    },
                    {
                        "id": 23456,
                        "name": "콯lutice",
                        "latitude": "50.09192000",
                        "longitude": "13.16297000"
                    }
                ]
            },
            {
                "id": 4586,
                "name": "Karvin치 District",
                "state_code": "803",
                "cities": []
            },
            {
                "id": 4631,
                "name": "Kladno District",
                "state_code": "203",
                "cities": []
            },
            {
                "id": 4591,
                "name": "Klatovy District",
                "state_code": "322",
                "cities": []
            },
            {
                "id": 4618,
                "name": "Kol칤n District",
                "state_code": "204",
                "cities": []
            },
            {
                "id": 4593,
                "name": "Krom캩콏칤 District",
                "state_code": "721",
                "cities": []
            },
            {
                "id": 4590,
                "name": "Liberec District",
                "state_code": "513",
                "cities": []
            },
            {
                "id": 4601,
                "name": "Liberec Region",
                "state_code": "51",
                "cities": [
                    {
                        "id": 22120,
                        "name": "Benecko",
                        "latitude": "50.66633000",
                        "longitude": "15.54816000"
                    },
                    {
                        "id": 22165,
                        "name": "Brni코t캩",
                        "latitude": "50.72919000",
                        "longitude": "14.70338000"
                    },
                    {
                        "id": 23384,
                        "name": "캛esk치 L칤pa",
                        "latitude": "50.68551000",
                        "longitude": "14.53764000"
                    },
                    {
                        "id": 23392,
                        "name": "캛esk칳 Dub",
                        "latitude": "50.66054000",
                        "longitude": "14.99617000"
                    },
                    {
                        "id": 22232,
                        "name": "Chrastava",
                        "latitude": "50.81693000",
                        "longitude": "14.96884000"
                    },
                    {
                        "id": 22245,
                        "name": "Cvikov",
                        "latitude": "50.77668000",
                        "longitude": "14.63298000"
                    },
                    {
                        "id": 22254,
                        "name": "Desn치",
                        "latitude": "50.75987000",
                        "longitude": "15.30284000"
                    },
                    {
                        "id": 22269,
                        "name": "Doksy",
                        "latitude": "50.56471000",
                        "longitude": "14.65553000"
                    },
                    {
                        "id": 22314,
                        "name": "Dub치",
                        "latitude": "50.54034000",
                        "longitude": "14.54023000"
                    },
                    {
                        "id": 22332,
                        "name": "Fr칳dlant",
                        "latitude": "50.92139000",
                        "longitude": "15.07974000"
                    },
                    {
                        "id": 22342,
                        "name": "Harrachov",
                        "latitude": "50.77209000",
                        "longitude": "15.43141000"
                    },
                    {
                        "id": 22348,
                        "name": "Hejnice",
                        "latitude": "50.87720000",
                        "longitude": "15.18168000"
                    },
                    {
                        "id": 22362,
                        "name": "Hodkovice nad Mohelkou",
                        "latitude": "50.66586000",
                        "longitude": "15.08985000"
                    },
                    {
                        "id": 22377,
                        "name": "Horn칤 Brann치",
                        "latitude": "50.60826000",
                        "longitude": "15.57146000"
                    },
                    {
                        "id": 22431,
                        "name": "Hr치dek nad Nisou",
                        "latitude": "50.85279000",
                        "longitude": "14.84455000"
                    },
                    {
                        "id": 22445,
                        "name": "Jablonec nad Jizerou",
                        "latitude": "50.70347000",
                        "longitude": "15.42959000"
                    },
                    {
                        "id": 22446,
                        "name": "Jablonec nad Nisou",
                        "latitude": "50.72431000",
                        "longitude": "15.17108000"
                    },
                    {
                        "id": 22448,
                        "name": "Jablonn칠 v Podje코t캩d칤",
                        "latitude": "50.76528000",
                        "longitude": "14.76052000"
                    },
                    {
                        "id": 22453,
                        "name": "Janov nad Nisou",
                        "latitude": "50.77204000",
                        "longitude": "15.16913000"
                    },
                    {
                        "id": 22472,
                        "name": "Jilemnice",
                        "latitude": "50.60890000",
                        "longitude": "15.50653000"
                    },
                    {
                        "id": 22483,
                        "name": "Josef콢v D콢l",
                        "latitude": "50.78191000",
                        "longitude": "15.23146000"
                    },
                    {
                        "id": 22491,
                        "name": "Kamenick칳 만nov",
                        "latitude": "50.77359000",
                        "longitude": "14.47287000"
                    },
                    {
                        "id": 22549,
                        "name": "Ko콏enov",
                        "latitude": "50.75926000",
                        "longitude": "15.36532000"
                    },
                    {
                        "id": 22551,
                        "name": "Ko코콘치lov",
                        "latitude": "50.57165000",
                        "longitude": "15.40403000"
                    },
                    {
                        "id": 22604,
                        "name": "Liberec",
                        "latitude": "50.76711000",
                        "longitude": "15.05619000"
                    },
                    {
                        "id": 22635,
                        "name": "Lomnice nad Popelkou",
                        "latitude": "50.53062000",
                        "longitude": "15.37341000"
                    },
                    {
                        "id": 22652,
                        "name": "Lu캜any nad Nisou",
                        "latitude": "50.74136000",
                        "longitude": "15.22046000"
                    },
                    {
                        "id": 22671,
                        "name": "Mal치 Sk치la",
                        "latitude": "50.64631000",
                        "longitude": "15.19543000"
                    },
                    {
                        "id": 22694,
                        "name": "Mimo켿",
                        "latitude": "50.65869000",
                        "longitude": "14.72474000"
                    },
                    {
                        "id": 22706,
                        "name": "Mn칤코ek",
                        "latitude": "50.83163000",
                        "longitude": "15.05630000"
                    },
                    {
                        "id": 22780,
                        "name": "Nov칠 M캩sto pod Smrkem",
                        "latitude": "50.92491000",
                        "longitude": "15.22943000"
                    },
                    {
                        "id": 22785,
                        "name": "Nov칳 Bor",
                        "latitude": "50.75761000",
                        "longitude": "14.55555000"
                    },
                    {
                        "id": 22805,
                        "name": "Ohrazenice",
                        "latitude": "50.59765000",
                        "longitude": "15.12596000"
                    },
                    {
                        "id": 22876,
                        "name": "Okres 캛esk치 L칤pa",
                        "latitude": "50.66667000",
                        "longitude": "14.66667000"
                    },
                    {
                        "id": 22821,
                        "name": "Okres Jablonec nad Nisou",
                        "latitude": "50.75000000",
                        "longitude": "15.25000000"
                    },
                    {
                        "id": 22833,
                        "name": "Okres Liberec",
                        "latitude": "50.83333000",
                        "longitude": "15.08333000"
                    },
                    {
                        "id": 22860,
                        "name": "Okres Semily",
                        "latitude": "50.61667000",
                        "longitude": "15.41667000"
                    },
                    {
                        "id": 22899,
                        "name": "Ose캜n치",
                        "latitude": "50.69489000",
                        "longitude": "14.92138000"
                    },
                    {
                        "id": 22996,
                        "name": "P캩n캜칤n",
                        "latitude": "50.68769000",
                        "longitude": "15.23593000"
                    },
                    {
                        "id": 22938,
                        "name": "Plavy",
                        "latitude": "50.70324000",
                        "longitude": "15.31736000"
                    },
                    {
                        "id": 22955,
                        "name": "Ponikl치",
                        "latitude": "50.66152000",
                        "longitude": "15.46329000"
                    },
                    {
                        "id": 23010,
                        "name": "P콏칤코ovice",
                        "latitude": "50.57813000",
                        "longitude": "15.08390000"
                    },
                    {
                        "id": 23022,
                        "name": "Raspenava",
                        "latitude": "50.90415000",
                        "longitude": "15.11465000"
                    },
                    {
                        "id": 23030,
                        "name": "Rokytnice nad Jizerou",
                        "latitude": "50.72561000",
                        "longitude": "15.43357000"
                    },
                    {
                        "id": 23040,
                        "name": "Rovensko pod Troskami",
                        "latitude": "50.53532000",
                        "longitude": "15.25941000"
                    },
                    {
                        "id": 23067,
                        "name": "Semily",
                        "latitude": "50.60191000",
                        "longitude": "15.33552000"
                    },
                    {
                        "id": 23089,
                        "name": "Smr쬺vka",
                        "latitude": "50.73820000",
                        "longitude": "15.24639000"
                    },
                    {
                        "id": 23127,
                        "name": "Str치 nad Nisou",
                        "latitude": "50.79099000",
                        "longitude": "15.02683000"
                    },
                    {
                        "id": 23128,
                        "name": "Str치 pod Ralskem",
                        "latitude": "50.70280000",
                        "longitude": "14.80102000"
                    },
                    {
                        "id": 23132,
                        "name": "Studenec",
                        "latitude": "50.55344000",
                        "longitude": "15.54936000"
                    },
                    {
                        "id": 23156,
                        "name": "Tanvald",
                        "latitude": "50.73735000",
                        "longitude": "15.30585000"
                    },
                    {
                        "id": 23186,
                        "name": "Turnov",
                        "latitude": "50.58356000",
                        "longitude": "15.15186000"
                    },
                    {
                        "id": 23220,
                        "name": "Valdice",
                        "latitude": "50.58350000",
                        "longitude": "15.41248000"
                    },
                    {
                        "id": 23238,
                        "name": "Velk칠 Hamry",
                        "latitude": "50.71373000",
                        "longitude": "15.31539000"
                    },
                    {
                        "id": 23276,
                        "name": "Vi코켿ova",
                        "latitude": "50.96663000",
                        "longitude": "15.02495000"
                    },
                    {
                        "id": 23306,
                        "name": "Vysok칠 nad Jizerou",
                        "latitude": "50.68559000",
                        "longitude": "15.40152000"
                    },
                    {
                        "id": 23350,
                        "name": "Z치kupy",
                        "latitude": "50.68475000",
                        "longitude": "14.64522000"
                    },
                    {
                        "id": 23438,
                        "name": "콯andov",
                        "latitude": "50.71394000",
                        "longitude": "14.39623000"
                    },
                    {
                        "id": 23445,
                        "name": "콯elezn칳 Brod",
                        "latitude": "50.64274000",
                        "longitude": "15.25408000"
                    }
                ]
            },
            {
                "id": 4605,
                "name": "Litom캩콏ice District",
                "state_code": "423",
                "cities": []
            },
            {
                "id": 4617,
                "name": "Louny District",
                "state_code": "424",
                "cities": []
            },
            {
                "id": 4638,
                "name": "M캩ln칤k District",
                "state_code": "206",
                "cities": []
            },
            {
                "id": 4643,
                "name": "Mlad치 Boleslav District",
                "state_code": "207",
                "cities": []
            },
            {
                "id": 4600,
                "name": "Moravian-Silesian Region",
                "state_code": "80",
                "cities": [
                    {
                        "id": 22108,
                        "name": "Albrechtice",
                        "latitude": "49.78645000",
                        "longitude": "18.52444000"
                    },
                    {
                        "id": 22113,
                        "name": "Barto코ovice",
                        "latitude": "49.66884000",
                        "longitude": "18.05461000"
                    },
                    {
                        "id": 22116,
                        "name": "Ba코ka",
                        "latitude": "49.64584000",
                        "longitude": "18.37233000"
                    },
                    {
                        "id": 22194,
                        "name": "B칤lovec",
                        "latitude": "49.75639000",
                        "longitude": "18.01581000"
                    },
                    {
                        "id": 22139,
                        "name": "Bohum칤n",
                        "latitude": "49.90411000",
                        "longitude": "18.35755000"
                    },
                    {
                        "id": 22140,
                        "name": "Bohuslavice",
                        "latitude": "49.94232000",
                        "longitude": "18.12866000"
                    },
                    {
                        "id": 22145,
                        "name": "Bolatice",
                        "latitude": "49.95172000",
                        "longitude": "18.08358000"
                    },
                    {
                        "id": 22161,
                        "name": "Brantice",
                        "latitude": "50.06351000",
                        "longitude": "17.62911000"
                    },
                    {
                        "id": 22210,
                        "name": "B콏ezov치",
                        "latitude": "49.79158000",
                        "longitude": "17.86556000"
                    },
                    {
                        "id": 22214,
                        "name": "B콏idli캜n치",
                        "latitude": "49.91167000",
                        "longitude": "17.37107000"
                    },
                    {
                        "id": 22171,
                        "name": "Brumovice",
                        "latitude": "50.01530000",
                        "longitude": "17.74958000"
                    },
                    {
                        "id": 22172,
                        "name": "Brunt치l",
                        "latitude": "49.98844000",
                        "longitude": "17.46470000"
                    },
                    {
                        "id": 22173,
                        "name": "Bru코perk",
                        "latitude": "49.70010000",
                        "longitude": "18.22210000"
                    },
                    {
                        "id": 22176,
                        "name": "Budi코ov nad Budi코ovkou",
                        "latitude": "49.79511000",
                        "longitude": "17.62969000"
                    },
                    {
                        "id": 22179,
                        "name": "Bukovec",
                        "latitude": "49.55114000",
                        "longitude": "18.82683000"
                    },
                    {
                        "id": 22186,
                        "name": "Byst콏ice",
                        "latitude": "49.63657000",
                        "longitude": "18.72038000"
                    },
                    {
                        "id": 23367,
                        "name": "캛eladn치",
                        "latitude": "49.54873000",
                        "longitude": "18.33759000"
                    },
                    {
                        "id": 23395,
                        "name": "캛esk칳 T캩코칤n",
                        "latitude": "49.74613000",
                        "longitude": "18.62613000"
                    },
                    {
                        "id": 22218,
                        "name": "Chlebi캜ov",
                        "latitude": "49.95942000",
                        "longitude": "17.96748000"
                    },
                    {
                        "id": 22229,
                        "name": "Chot캩buz",
                        "latitude": "49.76849000",
                        "longitude": "18.56912000"
                    },
                    {
                        "id": 22237,
                        "name": "Chucheln치",
                        "latitude": "49.98664000",
                        "longitude": "18.11656000"
                    },
                    {
                        "id": 22250,
                        "name": "Darkovice",
                        "latitude": "49.93592000",
                        "longitude": "18.22213000"
                    },
                    {
                        "id": 22321,
                        "name": "D캩tmarovice",
                        "latitude": "49.89412000",
                        "longitude": "18.46079000"
                    },
                    {
                        "id": 22262,
                        "name": "Dobr치",
                        "latitude": "49.67383000",
                        "longitude": "18.41393000"
                    },
                    {
                        "id": 22257,
                        "name": "Dobratice",
                        "latitude": "49.66039000",
                        "longitude": "18.49226000"
                    },
                    {
                        "id": 22271,
                        "name": "Doln칤 Bene코ov",
                        "latitude": "49.92101000",
                        "longitude": "18.10835000"
                    },
                    {
                        "id": 22284,
                        "name": "Doln칤 Lhota",
                        "latitude": "49.84236000",
                        "longitude": "18.09241000"
                    },
                    {
                        "id": 22286,
                        "name": "Doln칤 Lutyn캩",
                        "latitude": "49.89876000",
                        "longitude": "18.42815000"
                    },
                    {
                        "id": 22300,
                        "name": "Doln칤 콯ivotice",
                        "latitude": "49.89732000",
                        "longitude": "17.77969000"
                    },