{"id":73,"name":"Fiji Islands","iso3":"FJI","iso2":"FJ","phone_code":"679","capital":"Suva","currency":"FJD","currency_symbol":"FJ$","native":"Fiji","region":"Oceania","subregion":"Melanesia","timezones":[{"zoneName":"Pacific\/Fiji","gmtOffset":43200,"gmtOffsetName":"UTC+12:00","abbreviation":"FJT","tzName":"Fiji Time"}],"translations":{"br":"Fiji","pt":"Fiji","nl":"Fiji","hr":"Fi\u0111i","fa":"\u0641\u06cc\u062c\u06cc","de":"Fidschi","es":"Fiyi","fr":"Fidji","ja":"\u30d5\u30a3\u30b8\u30fc","it":"Figi"},"latitude":"-18.00000000","longitude":"175.00000000","emoji":"\ud83c\uddeb\ud83c\uddef","emojiU":"U+1F1EB U+1F1EF","states":[{"id":1917,"name":"Ba","state_code":"01","cities":[]},{"id":1930,"name":"Bua","state_code":"02","cities":[]},{"id":1924,"name":"Cakaudrove","state_code":"03","cities":[]},{"id":1929,"name":"Central Division","state_code":"C","cities":[{"id":39145,"name":"Naitasiri Province","latitude":"-17.83333000","longitude":"178.25000000"},{"id":39146,"name":"Namosi Province","latitude":"-18.05000000","longitude":"178.13333000"},{"id":39149,"name":"Rewa Province","latitude":"-18.08333000","longitude":"178.33333000"},{"id":39150,"name":"Serua Province","latitude":"-18.16667000","longitude":"178.00000000"},{"id":39151,"name":"Suva","latitude":"-18.14161000","longitude":"178.44149000"},{"id":39152,"name":"Tailevu Province","latitude":"-17.83333000","longitude":"178.50000000"}]},{"id":1932,"name":"Eastern Division","state_code":"E","cities":[{"id":39137,"name":"Kadavu Province","latitude":"-18.99331000","longitude":"178.22021000"},{"id":39139,"name":"Lau Province","latitude":"-18.20488000","longitude":"-178.79251000"},{"id":39141,"name":"Levuka","latitude":"-18.06667000","longitude":"179.31667000"},{"id":39142,"name":"Lomaiviti Province","latitude":"-17.66667000","longitude":"178.80000000"}]},{"id":1934,"name":"Kadavu","state_code":"04","cities":[]},{"id":1933,"name":"Lau","state_code":"05","cities":[]},{"id":1916,"name":"Lomaiviti","state_code":"06","cities":[]},{"id":1922,"name":"Macuata","state_code":"07","cities":[]},{"id":1919,"name":"Nadroga-Navosa","state_code":"08","cities":[]},{"id":1927,"name":"Naitasiri","state_code":"09","cities":[]},{"id":1928,"name":"Namosi","state_code":"10","cities":[]},{"id":1921,"name":"Northern Division","state_code":"N","cities":[{"id":39135,"name":"Bua Province","latitude":"-16.83333000","longitude":"178.75000000"},{"id":39136,"name":"Cakaudrove Province","latitude":"-16.66667000","longitude":"179.41667000"},{"id":39138,"name":"Labasa","latitude":"-16.43320000","longitude":"179.36451000"},{"id":39143,"name":"Macuata Province","latitude":"-16.50000000","longitude":"179.25000000"}]},{"id":1926,"name":"Ra","state_code":"11","cities":[]},{"id":1920,"name":"Rewa","state_code":"12","cities":[]},{"id":1931,"name":"Rotuma","state_code":"R","cities":[]},{"id":1925,"name":"Serua","state_code":"13","cities":[]},{"id":1918,"name":"Tailevu","state_code":"14","cities":[]},{"id":1923,"name":"Western Division","state_code":"W","cities":[{"id":39133,"name":"Ba","latitude":"-17.53430000","longitude":"177.67407000"},{"id":39134,"name":"Ba Province","latitude":"-17.66667000","longitude":"177.66667000"},{"id":39140,"name":"Lautoka","latitude":"-17.61686000","longitude":"177.45049000"},{"id":39144,"name":"Nadi","latitude":"-17.80309000","longitude":"177.41617000"},{"id":39147,"name":"Nandronga and Navosa Province","latitude":"-18.00000000","longitude":"177.66667000"},{"id":39148,"name":"Ra Province","latitude":"-17.50000000","longitude":"178.16667000"}]}]}