{"id":139,"name":"Mauritania","iso3":"MRT","iso2":"MR","phone_code":"222","capital":"Nouakchott","currency":"MRO","currency_symbol":"MRU","native":"\u0645\u0648\u0631\u064a\u062a\u0627\u0646\u064a\u0627","region":"Africa","subregion":"Western Africa","timezones":[{"zoneName":"Africa\/Nouakchott","gmtOffset":0,"gmtOffsetName":"UTC\u00b100","abbreviation":"GMT","tzName":"Greenwich Mean Time"}],"translations":{"br":"Maurit\u00e2nia","pt":"Maurit\u00e2nia","nl":"Mauritani\u00eb","hr":"Mauritanija","fa":"\u0645\u0648\u0631\u06cc\u062a\u0627\u0646\u06cc","de":"Mauretanien","es":"Mauritania","fr":"Mauritanie","ja":"\u30e2\u30fc\u30ea\u30bf\u30cb\u30a2","it":"Mauritania"},"latitude":"20.00000000","longitude":"-12.00000000","emoji":"\ud83c\uddf2\ud83c\uddf7","emojiU":"U+1F1F2 U+1F1F7","states":[{"id":3344,"name":"Adrar Region","state_code":"07","cities":[{"id":67746,"name":"Atar","latitude":"20.51770000","longitude":"-13.04857000"},{"id":67748,"name":"Chingue\u1e6d\u1e6di","latitude":"20.46300000","longitude":"-12.36200000"}]},{"id":3349,"name":"Assaba Region","state_code":"03","cities":[{"id":67747,"name":"Bark\u00e9wol","latitude":"16.64039000","longitude":"-12.49849000"},{"id":67750,"name":"Kiffa","latitude":"16.62073000","longitude":"-11.40208000"}]},{"id":3339,"name":"Brakna Region","state_code":"05","cities":[{"id":67757,"name":"\u2019Elb el Jmel","latitude":"17.01050000","longitude":"-13.97102000"},{"id":67745,"name":"Aleg","latitude":"17.05314000","longitude":"-13.91312000"}]},{"id":3346,"name":"Dakhlet Nouadhibou","state_code":"08","cities":[{"id":67751,"name":"Nouadhibou","latitude":"20.94188000","longitude":"-17.03842000"}]},{"id":3341,"name":"Gorgol Region","state_code":"04","cities":[{"id":67749,"name":"Ka\u00e9di","latitude":"16.15027000","longitude":"-13.50370000"}]},{"id":3350,"name":"Guidimaka Region","state_code":"10","cities":[{"id":67754,"name":"S\u00e9libaby","latitude":"15.15846000","longitude":"-12.18430000"}]},{"id":3338,"name":"Hodh Ech Chargui Region","state_code":"01","cities":[{"id":67752,"name":"N\u00e9ma","latitude":"16.61702000","longitude":"-7.25649000"}]},{"id":3351,"name":"Hodh El Gharbi Region","state_code":"02","cities":[{"id":67743,"name":"Aioun","latitude":"16.66140000","longitude":"-9.61490000"}]},{"id":3342,"name":"Inchiri Region","state_code":"12","cities":[{"id":67744,"name":"Akjoujt","latitude":"19.74657000","longitude":"-14.38531000"}]},{"id":3343,"name":"Nouakchott-Nord Region","state_code":"14","cities":[]},{"id":3352,"name":"Nouakchott-Ouest Region","state_code":"13","cities":[]},{"id":3347,"name":"Nouakchott-Sud Region","state_code":"15","cities":[]},{"id":3345,"name":"Tagant Region","state_code":"09","cities":[]},{"id":3340,"name":"Tiris Zemmour Region","state_code":"11","cities":[{"id":67756,"name":"Zouerate","latitude":"22.73542000","longitude":"-12.47134000"}]},{"id":3348,"name":"Trarza Region","state_code":"06","cities":[{"id":67753,"name":"Rosso","latitude":"16.51378000","longitude":"-15.80503000"},{"id":67755,"name":"T\u00e9kane","latitude":"16.60175000","longitude":"-15.34866000"}]}]}