{
    "QAT": {
        "id": 179,
        "name": "Qatar",
        "iso3": "QAT",
        "iso2": "QA",
        "phone_code": "974",
        "capital": "Doha",
        "currency": "QAR",
        "native": "ŸÇÿ∑ÿ±",
        "region": "Asia",
        "subregion": "Western Asia",
        "emoji": "üá∂üá¶",
        "emojiU": "U+1F1F6 U+1F1E6",
        "states": [
            {
                "id": 3182,
                "name": "Al Daayen",
                "state_code": "ZA",
                "cities": []
            },
            {
                "id": 3183,
                "name": "Al Khor",
                "state_code": "KH",
                "cities": [
                    {
                        "id": 89856,
                        "name": "Al Ghuwayrƒ´yah",
                        "latitude": "25.82882000",
                        "longitude": "51.24567000"
                    },
                    {
                        "id": 89858,
                        "name": "Al Khawr",
                        "latitude": "25.68389000",
                        "longitude": "51.50583000"
                    }
                ]
            },
            {
                "id": 3177,
                "name": "Al Rayyan Municipality",
                "state_code": "RA",
                "cities": [
                    {
                        "id": 89861,
                        "name": "Ar RayyƒÅn",
                        "latitude": "25.29194000",
                        "longitude": "51.42444000"
                    },
                    {
                        "id": 89869,
                        "name": "Umm BƒÅb",
                        "latitude": "25.21417000",
                        "longitude": "50.80722000"
                    }
                ]
            },
            {
                "id": 3179,
                "name": "Al Wakrah",
                "state_code": "WA",
                "cities": [
                    {
                        "id": 89859,
                        "name": "Al Wakrah",
                        "latitude": "25.17151000",
                        "longitude": "51.60337000"
                    },
                    {
                        "id": 89860,
                        "name": "Al Wukayr",
                        "latitude": "25.15107000",
                        "longitude": "51.53718000"
                    },
                    {
                        "id": 89868,
                        "name": "Musay‚Äòƒ´d",
                        "latitude": "24.99226000",
                        "longitude": "51.55067000"
                    }
                ]
            },
            {
                "id": 3178,
                "name": "Al-Shahaniya",
                "state_code": "SH",
                "cities": [
                    {
                        "id": 89857,
                        "name": "Al Jumaylƒ´yah",
                        "latitude": "25.61068000",
                        "longitude": "51.09108000"
                    },
                    {
                        "id": 89863,
                        "name": "Ash Shƒ´·∏©ƒÅnƒ´yah",
                        "latitude": "25.37088000",
                        "longitude": "51.22264000"
                    },
                    {
                        "id": 89865,
                        "name": "DukhƒÅn",
                        "latitude": "25.42485000",
                        "longitude": "50.78227000"
                    }
                ]
            },
            {
                "id": 3181,
                "name": "Doha",
                "state_code": "DA",
                "cities": [
                    {
                        "id": 89864,
                        "name": "Doha",
                        "latitude": "25.28545000",
                        "longitude": "51.53096000"
                    }
                ]
            },
            {
                "id": 3180,
                "name": "Madinat ash Shamal",
                "state_code": "MS",
                "cities": [
                    {
                        "id": 89862,
                        "name": "Ar Ruways",
                        "latitude": "26.13978000",
                        "longitude": "51.21493000"
                    },
                    {
                        "id": 89866,
                        "name": "Fuwayri≈£",
                        "latitude": "26.02565000",
                        "longitude": "51.36971000"
                    },
                    {
                        "id": 89867,
                        "name": "Madƒ´nat ash ShamƒÅl",
                        "latitude": "26.12933000",
                        "longitude": "51.20090000"
                    }
                ]
            },
            {
                "id": 3184,
                "name": "Umm Salal Municipality",
                "state_code": "US",
                "cities": [
                    {
                        "id": 89870,
                        "name": "Umm ≈ûalƒÅl Mu·∏©ammad",
                        "latitude": "25.41524000",
                        "longitude": "51.40647000"
                    }
                ]
            }
        ]
    }
}