{"id":202,"name":"Solomon Islands","iso3":"SLB","iso2":"SB","phone_code":"677","capital":"Honiara","currency":"SBD","currency_symbol":"Si$","native":"Solomon Islands","region":"Oceania","subregion":"Melanesia","timezones":[{"zoneName":"Pacific\/Guadalcanal","gmtOffset":39600,"gmtOffsetName":"UTC+11:00","abbreviation":"SBT","tzName":"Solomon Islands Time"}],"emoji":"\ud83c\uddf8\ud83c\udde7","emojiU":"U+1F1F8 U+1F1E7","states":[{"id":4784,"name":"Central Province","state_code":"CE","cities":[{"id":102905,"name":"Tulagi","latitude":"-9.10306000","longitude":"160.15056000"}]},{"id":4781,"name":"Choiseul Province","state_code":"CH","cities":[]},{"id":4785,"name":"Guadalcanal Province","state_code":"GU","cities":[{"id":102902,"name":"Honiara","latitude":"-9.43333000","longitude":"159.95000000"}]},{"id":4778,"name":"Honiara","state_code":"CT","cities":[]},{"id":4780,"name":"Isabel Province","state_code":"IS","cities":[{"id":102900,"name":"Buala","latitude":"-8.14497000","longitude":"159.59212000"}]},{"id":4782,"name":"Makira-Ulawa Province","state_code":"MK","cities":[{"id":102903,"name":"Kirakira","latitude":"-10.45442000","longitude":"161.92045000"}]},{"id":4783,"name":"Malaita Province","state_code":"ML","cities":[{"id":102899,"name":"Auki","latitude":"-8.76778000","longitude":"160.69778000"}]},{"id":4787,"name":"Rennell and Bellona Province","state_code":"RB","cities":[]},{"id":4779,"name":"Temotu Province","state_code":"TE","cities":[{"id":102904,"name":"Lata","latitude":"-10.72500000","longitude":"165.79722000"}]},{"id":4786,"name":"Western Province","state_code":"WE","cities":[{"id":102901,"name":"Gizo","latitude":"-8.10303000","longitude":"156.84186000"}]}]}