{"id":210,"name":"Suriname","iso3":"SUR","iso2":"SR","phone_code":"597","capital":"Paramaribo","currency":"SRD","currency_symbol":"$","native":"Suriname","region":"Americas","subregion":"South America","timezones":[{"zoneName":"America\/Paramaribo","gmtOffset":-10800,"gmtOffsetName":"UTC-03:00","abbreviation":"SRT","tzName":"Suriname Time"}],"translations":{"br":"Suriname","pt":"Suriname","nl":"Suriname","hr":"Surinam","fa":"\u0633\u0648\u0631\u06cc\u0646\u0627\u0645","de":"Suriname","es":"Surinam","fr":"Surinam","ja":"\u30b9\u30ea\u30ca\u30e0","it":"Suriname"},"latitude":"4.00000000","longitude":"-56.00000000","emoji":"\ud83c\uddf8\ud83c\uddf7","emojiU":"U+1F1F8 U+1F1F7","states":[{"id":2846,"name":"Brokopondo District","state_code":"BR","cities":[{"id":104822,"name":"Brokopondo","latitude":"5.05594000","longitude":"-54.98043000"},{"id":104823,"name":"Brownsweg","latitude":"5.00435000","longitude":"-55.15333000"}]},{"id":2839,"name":"Commewijne District","state_code":"CM","cities":[{"id":104826,"name":"Mari\u00ebnburg","latitude":"5.87722000","longitude":"-55.04322000"},{"id":104828,"name":"Nieuw Amsterdam","latitude":"5.88573000","longitude":"-55.08871000"}]},{"id":2842,"name":"Coronie District","state_code":"CR","cities":[{"id":104832,"name":"Totness","latitude":"5.87618000","longitude":"-56.32572000"}]},{"id":2845,"name":"Marowijne District","state_code":"MA","cities":[{"id":104821,"name":"Albina","latitude":"5.49788000","longitude":"-54.05522000"},{"id":104827,"name":"Moengo","latitude":"5.61411000","longitude":"-54.40121000"}]},{"id":2840,"name":"Nickerie District","state_code":"NI","cities":[{"id":104829,"name":"Nieuw Nickerie","latitude":"5.92606000","longitude":"-56.97297000"},{"id":104833,"name":"Wageningen","latitude":"5.76010000","longitude":"-56.66523000"}]},{"id":2841,"name":"Para District","state_code":"PR","cities":[{"id":104830,"name":"Onverwacht","latitude":"5.58983000","longitude":"-55.19462000"}]},{"id":2843,"name":"Paramaribo District","state_code":"PM","cities":[{"id":104831,"name":"Paramaribo","latitude":"5.86638000","longitude":"-55.16682000"}]},{"id":2848,"name":"Saramacca District","state_code":"SA","cities":[{"id":104824,"name":"Groningen","latitude":"5.80000000","longitude":"-55.46667000"}]},{"id":2847,"name":"Sipaliwini District","state_code":"SI","cities":[]},{"id":2844,"name":"Wanica District","state_code":"WA","cities":[{"id":104825,"name":"Lelydorp","latitude":"5.70000000","longitude":"-55.23333000"}]}]}