{
    "SVN": {
        "id": 201,
        "name": "Slovenia",
        "iso3": "SVN",
        "iso2": "SI",
        "phone_code": "386",
        "capital": "Ljubljana",
        "currency": "EUR",
        "native": "Slovenija",
        "region": "Europe",
        "subregion": "Southern Europe",
        "emoji": "üá∏üáÆ",
        "emojiU": "U+1F1F8 U+1F1EE",
        "states": [
            {
                "id": 4183,
                "name": "Ajdov≈°ƒçina Municipality",
                "state_code": "001",
                "cities": [
                    {
                        "id": 104059,
                        "name": "Ajdov≈°ƒçina",
                        "latitude": "45.88601000",
                        "longitude": "13.90946000"
                    },
                    {
                        "id": 104084,
                        "name": "Cirkulane",
                        "latitude": "46.34408000",
                        "longitude": "15.99472000"
                    },
                    {
                        "id": 104174,
                        "name": "Lokavec",
                        "latitude": "45.90167000",
                        "longitude": "13.87972000"
                    }
                ]
            },
            {
                "id": 4326,
                "name": "Ankaran Municipality",
                "state_code": "213",
                "cities": [
                    {
                        "id": 104060,
                        "name": "Ankaran",
                        "latitude": "45.57861000",
                        "longitude": "13.73611000"
                    }
                ]
            },
            {
                "id": 4301,
                "name": "Beltinci Municipality",
                "state_code": "002",
                "cities": [
                    {
                        "id": 104063,
                        "name": "Beltinci",
                        "latitude": "46.60528000",
                        "longitude": "16.24056000"
                    },
                    {
                        "id": 104104,
                        "name": "Ganƒçani",
                        "latitude": "46.63250000",
                        "longitude": "16.25111000"
                    },
                    {
                        "id": 104166,
                        "name": "Lipovci",
                        "latitude": "46.62833000",
                        "longitude": "16.22806000"
                    },
                    {
                        "id": 104331,
                        "name": "Zgornje Gorje",
                        "latitude": "46.37962000",
                        "longitude": "14.06937000"
                    }
                ]
            },
            {
                "id": 4166,
                "name": "Benedikt Municipality",
                "state_code": "148",
                "cities": [
                    {
                        "id": 104064,
                        "name": "Benedikt",
                        "latitude": "46.60861000",
                        "longitude": "15.88833000"
                    }
                ]
            },
            {
                "id": 4179,
                "name": "Bistrica ob Sotli Municipality",
                "state_code": "149",
                "cities": [
                    {
                        "id": 104067,
                        "name": "Bistrica ob Sotli",
                        "latitude": "46.05889000",
                        "longitude": "15.66417000"
                    }
                ]
            },
            {
                "id": 4202,
                "name": "Bled Municipality",
                "state_code": "003",
                "cities": [
                    {
                        "id": 104069,
                        "name": "Bled",
                        "latitude": "46.36917000",
                        "longitude": "14.11361000"
                    },
                    {
                        "id": 104144,
                        "name": "Kostanjevica na Krki",
                        "latitude": "45.84611000",
                        "longitude": "15.42222000"
                    },
                    {
                        "id": 104326,
                        "name": "Zasip",
                        "latitude": "46.39284000",
                        "longitude": "14.10869000"
                    }
                ]
            },
            {
                "id": 4278,
                "name": "Bloke Municipality",
                "state_code": "150",
                "cities": [
                    {
                        "id": 104207,
                        "name": "Nova Vas",
                        "latitude": "45.77167000",
                        "longitude": "14.50583000"
                    }
                ]
            },
            {
                "id": 4282,
                "name": "Bohinj Municipality",
                "state_code": "004",
                "cities": [
                    {
                        "id": 104070,
                        "name": "Bohinjska Bistrica",
                        "latitude": "46.27216000",
                        "longitude": "13.95350000"
                    },
                    {
                        "id": 104100,
                        "name": "Dragomer",
                        "latitude": "46.01667000",
                        "longitude": "14.38333000"
                    },
                    {
                        "id": 104172,
                        "name": "Log pri Brezovici",
                        "latitude": "46.01667000",
                        "longitude": "14.36667000"
                    }
                ]
            },
            {
                "id": 4200,
                "name": "Borovnica Municipality",
                "state_code": "005",
                "cities": [
                    {
                        "id": 104071,
                        "name": "Borovnica",
                        "latitude": "45.91583000",
                        "longitude": "14.36306000"
                    },
                    {
                        "id": 104180,
                        "name": "Makole",
                        "latitude": "46.31722000",
                        "longitude": "15.66722000"
                    }
                ]
            },
            {
                "id": 4181,
                "name": "Bovec Municipality",
                "state_code": "006",
                "cities": [
                    {
                        "id": 104072,
                        "name": "Bovec",
                        "latitude": "46.33808000",
                        "longitude": "13.55245000"
                    },
                    {
                        "id": 104190,
                        "name": "Mirna",
                        "latitude": "45.95528000",
                        "longitude": "15.06194000"
                    }
                ]
            },
            {
                "id": 4141,
                "name": "Braslovƒçe Municipality",
                "state_code": "151",
                "cities": [
                    {
                        "id": 104073,
                        "name": "Braslovƒçe",
                        "latitude": "46.28972000",
                        "longitude": "15.03889000"
                    }
                ]
            },
            {
                "id": 4240,
                "name": "Brda Municipality",
                "state_code": "007",
                "cities": [
                    {
                        "id": 104094,
                        "name": "Dobrovo",
                        "latitude": "45.99639000",
                        "longitude": "13.52639000"
                    },
                    {
                        "id": 104195,
                        "name": "Mokronog",
                        "latitude": "45.93417000",
                        "longitude": "15.14083000"
                    }
                ]
            },
            {
                "id": 4215,
                "name": "Bre≈æice Municipality",
                "state_code": "009",
                "cities": [
                    {
                        "id": 104076,
                        "name": "Bre≈æice",
                        "latitude": "45.90333000",
                        "longitude": "15.59111000"
                    },
                    {
                        "id": 104227,
                        "name": "Poljƒçane",
                        "latitude": "46.31194000",
                        "longitude": "15.57917000"
                    }
                ]
            },
            {
                "id": 4165,
                "name": "Brezovica Municipality",
                "state_code": "008",
                "cities": [
                    {
                        "id": 104075,
                        "name": "Brezovica pri Ljubljani",
                        "latitude": "46.03333000",
                        "longitude": "14.40000000"
                    },
                    {
                        "id": 104205,
                        "name": "Notranje Gorice",
                        "latitude": "45.98750000",
                        "longitude": "14.39889000"
                    },
                    {
                        "id": 104214,
                        "name": "Op≈°tina Ljubljana-Viƒç-Rudnik",
                        "latitude": "46.03333000",
                        "longitude": "14.41667000"
                    },
                    {
                        "id": 104254,
                        "name": "Reƒçica ob Savinji",
                        "latitude": "46.31667000",
                        "longitude": "14.91667000"
                    },
                    {
                        "id": 104316,
                        "name": "Vnanje Gorice",
                        "latitude": "46.00722000",
                        "longitude": "14.42194000"
                    }
                ]
            },
            {
                "id": 4147,
                "name": "Cankova Municipality",
                "state_code": "152",
                "cities": [
                    {
                        "id": 104078,
                        "name": "Cankova",
                        "latitude": "46.72083000",
                        "longitude": "16.02250000"
                    }
                ]
            },
            {
                "id": 4310,
                "name": "Cerklje na Gorenjskem Municipality",
                "state_code": "012",
                "cities": [
                    {
                        "id": 104080,
                        "name": "Cerklje na Gorenjskem",
                        "latitude": "46.25417000",
                        "longitude": "14.48861000"
                    }
                ]
            },
            {
                "id": 4162,
                "name": "Cerknica Municipality",
                "state_code": "013",
                "cities": [
                    {
                        "id": 104081,
                        "name": "Cerknica",
                        "latitude": "45.79306000",
                        "longitude": "14.36250000"
                    },
                    {
                        "id": 104246,
                        "name": "Rakek",
                        "latitude": "45.81333000",
                        "longitude": "14.31111000"
                    }
                ]
            },
            {
                "id": 4178,
                "name": "Cerkno Municipality",
                "state_code": "014",
                "cities": [
                    {
                        "id": 104082,
                        "name": "Cerkno",
                        "latitude": "46.12556000",
                        "longitude": "13.98167000"
                    }
                ]
            },
            {
                "id": 4176,
                "name": "Cerkvenjak Municipality",
                "state_code": "153",
                "cities": [
                    {
                        "id": 104083,
                        "name": "Cerkvenjak",
                        "latitude": "46.57056000",
                        "longitude": "15.94361000"
                    }
                ]
            },
            {
                "id": 4191,
                "name": "City Municipality of Celje",
                "state_code": "011",
                "cities": [
                    {
                        "id": 104079,
                        "name": "Celje",
                        "latitude": "46.23092000",
                        "longitude": "15.26044000"
                    },
                    {
                        "id": 104168,
                        "name": "Ljubeƒçna",
                        "latitude": "46.25567000",
                        "longitude": "15.32430000"
                    },
                    {
                        "id": 104299,
                        "name": "Trnovlje pri Celju",
                        "latitude": "46.25667000",
                        "longitude": "15.29528000"
                    }
                ]
            },
            {
                "id": 4236,
                "name": "City Municipality of Novo Mesto",
                "state_code": "085",
                "cities": [
                    {
                        "id": 104208,
                        "name": "Novo Mesto",
                        "latitude": "45.80397000",
                        "longitude": "15.16886000"
                    }
                ]
            },
            {
                "id": 4151,
                "name": "ƒåren≈°ovci Municipality",
                "state_code": "015",
                "cities": [
                    {
                        "id": 104337,
                        "name": "ƒåren≈°ovci",
                        "latitude": "46.55794000",
                        "longitude": "16.30410000"
                    }
                ]
            },
            {
                "id": 4232,
                "name": "ƒårna na Koro≈°kem Municipality",
                "state_code": "016",
                "cities": [
                    {
                        "id": 104338,
                        "name": "ƒårna na Koro≈°kem",
                        "latitude": "46.47045000",
                        "longitude": "14.85009000"
                    }
                ]
            },
            {
                "id": 4291,
                "name": "ƒårnomelj Municipality",
                "state_code": "017",
                "cities": [
                    {
                        "id": 104339,
                        "name": "ƒårnomelj",
                        "latitude": "45.57111000",
                        "longitude": "15.18889000"
                    }
                ]
            },
            {
                "id": 4304,
                "name": "Destrnik Municipality",
                "state_code": "018",
                "cities": [
                    {
                        "id": 104087,
                        "name": "Destrnik",
                        "latitude": "46.49254000",
                        "longitude": "15.87893000"
                    }
                ]
            },
            {
                "id": 4167,
                "name": "Divaƒça Municipality",
                "state_code": "019",
                "cities": [
                    {
                        "id": 104088,
                        "name": "Divaƒça",
                        "latitude": "45.68472000",
                        "longitude": "13.97028000"
                    }
                ]
            },
            {
                "id": 4295,
                "name": "Dobje Municipality",
                "state_code": "154",
                "cities": [
                    {
                        "id": 104090,
                        "name": "Dobje pri Planini",
                        "latitude": "46.13747000",
                        "longitude": "15.39412000"
                    }
                ]
            },
            {
                "id": 4216,
                "name": "Dobrepolje Municipality",
                "state_code": "020",
                "cities": [
                    {
                        "id": 104309,
                        "name": "Videm",
                        "latitude": "45.85000000",
                        "longitude": "14.69417000"
                    }
                ]
            },
            {
                "id": 4252,
                "name": "Dobrna Municipality",
                "state_code": "155",
                "cities": [
                    {
                        "id": 104091,
                        "name": "Dobrna",
                        "latitude": "46.33750000",
                        "longitude": "15.22639000"
                    }
                ]
            },
            {
                "id": 4308,
                "name": "Dobrova‚ÄìPolhov Gradec Municipality",
                "state_code": "021",
                "cities": [
                    {
                        "id": 104092,
                        "name": "Dobrova",
                        "latitude": "46.04580000",
                        "longitude": "14.39186000"
                    }
                ]
            },
            {
                "id": 4189,
                "name": "Dobrovnik Municipality",
                "state_code": "156",
                "cities": [
                    {
                        "id": 104093,
                        "name": "Dobrovnik",
                        "latitude": "46.65139000",
                        "longitude": "16.35250000"
                    }
                ]
            },
            {
                "id": 4173,
                "name": "Dol pri Ljubljani Municipality",
                "state_code": "022",
                "cities": [
                    {
                        "id": 104096,
                        "name": "Dol pri Ljubljani",
                        "latitude": "46.08861000",
                        "longitude": "14.60083000"
                    }
                ]
            },
            {
                "id": 4281,
                "name": "Dolenjske Toplice Municipality",
                "state_code": "157",
                "cities": [
                    {
                        "id": 104097,
                        "name": "Dolenjske Toplice",
                        "latitude": "45.75657000",
                        "longitude": "15.05917000"
                    }
                ]
            },
            {
                "id": 4159,
                "name": "Dom≈æale Municipality",
                "state_code": "023",
                "cities": [
                    {
                        "id": 104089,
                        "name": "Dob",
                        "latitude": "46.15194000",
                        "longitude": "14.62861000"
                    },
                    {
                        "id": 104098,
                        "name": "Dom≈æale",
                        "latitude": "46.13774000",
                        "longitude": "14.59371000"
                    },
                    {
                        "id": 104244,
                        "name": "Radomlje",
                        "latitude": "46.17361000",
                        "longitude": "14.61222000"
                    },
                    {
                        "id": 104312,
                        "name": "Vir",
                        "latitude": "46.15325000",
                        "longitude": "14.60741000"
                    }
                ]
            },
            {
                "id": 4290,
                "name": "Dornava Municipality",
                "state_code": "024",
                "cities": [
                    {
                        "id": 104099,
                        "name": "Dornava",
                        "latitude": "46.43667000",
                        "longitude": "15.95361000"
                    }
                ]
            },
            {
                "id": 4345,
                "name": "Dravograd Municipality",
                "state_code": "025",
                "cities": [
                    {
                        "id": 104102,
                        "name": "Dravograd",
                        "latitude": "46.58806000",
                        "longitude": "15.01917000"
                    }
                ]
            },
            {
                "id": 4213,
                "name": "Duplek Municipality",
                "state_code": "026",
                "cities": [
                    {
                        "id": 104283,
                        "name": "Spodnji Duplek",
                        "latitude": "46.50306000",
                        "longitude": "15.74528000"
                    },
                    {
                        "id": 104334,
                        "name": "Zgornji Duplek",
                        "latitude": "46.51361000",
                        "longitude": "15.72083000"
                    }
                ]
            },
            {
                "id": 4293,
                "name": "Gorenja Vas‚ÄìPoljane Municipality",
                "state_code": "027",
                "cities": [
                    {
                        "id": 104106,
                        "name": "Gorenja Vas",
                        "latitude": "46.10722000",
                        "longitude": "14.14806000"
                    }
                ]
            },
            {
                "id": 4210,
                "name": "Gori≈°nica Municipality",
                "state_code": "028",
                "cities": [
                    {
                        "id": 104107,
                        "name": "Gori≈°nica",
                        "latitude": "46.41472000",
                        "longitude": "16.01389000"
                    }
                ]
            },
            {
                "id": 4284,
                "name": "Gorje Municipality",
                "state_code": "207",
                "cities": []
            },
            {
                "id": 4343,
                "name": "Gornja Radgona Municipality",
                "state_code": "029",
                "cities": [
                    {
                        "id": 104108,
                        "name": "Gornja Radgona",
                        "latitude": "46.67333000",
                        "longitude": "15.99222000"
                    }
                ]
            },
            {
                "id": 4339,
                "name": "Gornji Grad Municipality",
                "state_code": "030",
                "cities": [
                    {
                        "id": 104109,
                        "name": "Gornji Grad",
                        "latitude": "46.29528000",
                        "longitude": "14.80833000"
                    }
                ]
            },
            {
                "id": 4271,
                "name": "Gornji Petrovci Municipality",
                "state_code": "031",
                "cities": [
                    {
                        "id": 104110,
                        "name": "Gornji Petrovci",
                        "latitude": "46.80528000",
                        "longitude": "16.22250000"
                    }
                ]
            },
            {
                "id": 4217,
                "name": "Grad Municipality",
                "state_code": "158",
                "cities": [
                    {
                        "id": 104112,
                        "name": "Grad",
                        "latitude": "46.80000000",
                        "longitude": "16.10000000"
                    }
                ]
            },
            {
                "id": 4336,
                "name": "Grosuplje Municipality",
                "state_code": "032",
                "cities": [
                    {
                        "id": 104113,
                        "name": "Grosuplje",
                        "latitude": "45.95556000",
                        "longitude": "14.65889000"
                    },
                    {
                        "id": 104357,
                        "name": "≈†marje-Sap",
                        "latitude": "45.97618000",
                        "longitude": "14.61177000"
                    }
                ]
            },
            {
                "id": 4145,
                "name": "Hajdina Municipality",
                "state_code": "159",
                "cities": [
                    {
                        "id": 104279,
                        "name": "Spodnja Hajdina",
                        "latitude": "46.40889000",
                        "longitude": "15.84694000"
                    }
                ]
            },
            {
                "id": 4175,
                "name": "Hoƒçe‚ÄìSlivnica Municipality",
                "state_code": "160",
                "cities": [
                    {
                        "id": 104116,
                        "name": "Hotinja Vas",
                        "latitude": "46.46667000",
                        "longitude": "15.66667000"
                    },
                    {
                        "id": 104242,
                        "name": "Radizel",
                        "latitude": "46.47444000",
                        "longitude": "15.65583000"
                    },
                    {
                        "id": 104260,
                        "name": "Rogoza",
                        "latitude": "46.50000000",
                        "longitude": "15.68333000"
                    },
                    {
                        "id": 104281,
                        "name": "Spodnje Hoƒçe",
                        "latitude": "46.50000000",
                        "longitude": "15.65000000"
                    }
                ]
            },
            {
                "id": 4327,
                "name": "Hodo≈° Municipality",
                "state_code": "161",
                "cities": [
                    {
                        "id": 104114,
                        "name": "Hodo≈°",
                        "latitude": "46.82333000",
                        "longitude": "16.33417000"
                    }
                ]
            },
            {
                "id": 4193,
                "name": "Horjul Municipality",
                "state_code": "162",
                "cities": [
                    {
                        "id": 104115,
                        "name": "Horjul",
                        "latitude": "46.02361000",
                        "longitude": "14.29917000"
                    }
                ]
            },
            {
                "id": 4341,
                "name": "Hrastnik Municipality",
                "state_code": "034",
                "cities": [
                    {
                        "id": 104095,
                        "name": "Dol pri Hrastniku",
                        "latitude": "46.14194000",
                        "longitude": "15.11278000"
                    },
                    {
                        "id": 104118,
                        "name": "Hrastnik",
                        "latitude": "46.14611000",
                        "longitude": "15.08139000"
                    }
                ]
            },
            {
                "id": 4321,
                "name": "Hrpelje‚ÄìKozina Municipality",
                "state_code": "035",
                "cities": [
                    {
                        "id": 104147,
                        "name": "Kozina",
                        "latitude": "45.61000000",
                        "longitude": "13.93556000"
                    }
                ]
            },
            {
                "id": 4152,
                "name": "Idrija Municipality",
                "state_code": "036",
                "cities": [
                    {
                        "id": 104122,
                        "name": "Idrija",
                        "latitude": "46.00278000",
                        "longitude": "14.03056000"
                    },
                    {
                        "id": 104280,
                        "name": "Spodnja Idrija",
                        "latitude": "46.03194000",
                        "longitude": "14.02722000"
                    }
                ]
            },
            {
                "id": 4286,
                "name": "Ig Municipality",
                "state_code": "037",
                "cities": [
                    {
                        "id": 104123,
                        "name": "Ig",
                        "latitude": "45.96028000",
                        "longitude": "14.52889000"
                    }
                ]
            },
            {
                "id": 4305,
                "name": "Ivanƒçna Gorica Municipality",
                "state_code": "039",
                "cities": [
                    {
                        "id": 104125,
                        "name": "Ivanƒçna Gorica",
                        "latitude": "45.93833000",
                        "longitude": "14.80444000"
                    },
                    {
                        "id": 104350,
                        "name": "≈†entvid pri Stiƒçni",
                        "latitude": "45.95004000",
                        "longitude": "14.84344000"
                    }
                ]
            },
            {
                "id": 4322,
                "name": "Izola Municipality",
                "state_code": "040",
                "cities": [
                    {
                        "id": 104127,
                        "name": "Izola",
                        "latitude": "45.53694000",
                        "longitude": "13.66194000"
                    },
                    {
                        "id": 104128,
                        "name": "Jagodje",
                        "latitude": "45.52845000",
                        "longitude": "13.64721000"
                    }
                ]
            },
            {
                "id": 4337,
                "name": "Jesenice Municipality",
                "state_code": "041",
                "cities": [
                    {
                        "id": 104120,
                        "name": "Hru≈°ica",
                        "latitude": "46.44500000",
                        "longitude": "14.01778000"
                    },
                    {
                        "id": 104130,
                        "name": "Jesenice",
                        "latitude": "46.43056000",
                        "longitude": "14.06694000"
                    },
                    {
                        "id": 104143,
                        "name": "Koro≈°ka Bela",
                        "latitude": "46.44913000",
                        "longitude": "14.11135000"
                    },
                    {
                        "id": 104274,
                        "name": "Slovenski Javornik",
                        "latitude": "46.42611000",
                        "longitude": "14.08722000"
                    }
                ]
            },
            {
                "id": 4203,
                "name": "Jezersko Municipality",
                "state_code": "163",
                "cities": [
                    {
                        "id": 104332,
                        "name": "Zgornje Jezersko",
                        "latitude": "46.39410000",
                        "longitude": "14.50659000"
                    }
                ]
            },
            {
                "id": 4266,
                "name": "Jur≈°inci Municipality",
                "state_code": "042",
                "cities": [
                    {
                        "id": 104131,
                        "name": "Jur≈°inci",
                        "latitude": "46.48472000",
                        "longitude": "15.97139000"
                    }
                ]
            },
            {
                "id": 4180,
                "name": "Kamnik Municipality",
                "state_code": "043",
                "cities": [
                    {
                        "id": 104133,
                        "name": "Kamnik",
                        "latitude": "46.22587000",
                        "longitude": "14.61207000"
                    },
                    {
                        "id": 104184,
                        "name": "Mekinje",
                        "latitude": "46.23333000",
                        "longitude": "14.61667000"
                    },
                    {
                        "id": 104355,
                        "name": "≈†marca",
                        "latitude": "46.19333000",
                        "longitude": "14.59667000"
                    }
                ]
            },
            {
                "id": 4227,
                "name": "Kanal ob Soƒçi Municipality",
                "state_code": "044",
                "cities": [
                    {
                        "id": 104086,
                        "name": "Deskle",
                        "latitude": "46.05307000",
                        "longitude": "13.61382000"
                    },
                    {
                        "id": 104134,
                        "name": "Kanal",
                        "latitude": "46.08861000",
                        "longitude": "13.63972000"
                    }
                ]
            },
            {
                "id": 4150,
                "name": "Kidriƒçevo Municipality",
                "state_code": "045",
                "cities": [
                    {
                        "id": 104135,
                        "name": "Kidriƒçevo",
                        "latitude": "46.40361000",
                        "longitude": "15.79111000"
                    }
                ]
            },
            {
                "id": 4243,
                "name": "Kobarid Municipality",
                "state_code": "046",
                "cities": [
                    {
                        "id": 104137,
                        "name": "Kobarid",
                        "latitude": "46.24761000",
                        "longitude": "13.57907000"
                    }
                ]
            },
            {
                "id": 4325,
                "name": "Kobilje Municipality",
                "state_code": "047",
                "cities": [
                    {
                        "id": 104138,
                        "name": "Kobilje",
                        "latitude": "46.68472000",
                        "longitude": "16.39778000"
                    }
                ]
            },
            {
                "id": 4335,
                "name": "Koƒçevje Municipality",
                "state_code": "048",
                "cities": [
                    {
                        "id": 104149,
                        "name": "Koƒçevje",
                        "latitude": "45.64333000",
                        "longitude": "14.86333000"
                    }
                ]
            },
            {
                "id": 4315,
                "name": "Komen Municipality",
                "state_code": "049",
                "cities": [
                    {
                        "id": 104140,
                        "name": "Komen",
                        "latitude": "45.81528000",
                        "longitude": "13.74833000"
                    }
                ]
            },
            {
                "id": 4283,
                "name": "Komenda Municipality",
                "state_code": "164",
                "cities": [
                    {
                        "id": 104141,
                        "name": "Komenda",
                        "latitude": "46.20484000",
                        "longitude": "14.53839000"
                    },
                    {
                        "id": 104199,
                        "name": "Moste",
                        "latitude": "46.19500000",
                        "longitude": "14.55139000"
                    }
                ]
            },
            {
                "id": 4319,
                "name": "Koper City Municipality",
                "state_code": "050",
                "cities": [
                    {
                        "id": 104085,
                        "name": "Dekani",
                        "latitude": "45.54972000",
                        "longitude": "13.81361000"
                    },
                    {
                        "id": 104121,
                        "name": "Hrvatini",
                        "latitude": "45.58278000",
                        "longitude": "13.75667000"
                    },
                    {
                        "id": 104142,
                        "name": "Koper",
                        "latitude": "45.54694000",
                        "longitude": "13.72944000"
                    },
                    {
                        "id": 104223,
                        "name": "Pobegi",
                        "latitude": "45.53944000",
                        "longitude": "13.79611000"
                    },
                    {
                        "id": 104231,
                        "name": "Prade",
                        "latitude": "45.54003000",
                        "longitude": "13.77607000"
                    },
                    {
                        "id": 104282,
                        "name": "Spodnje ≈†kofije",
                        "latitude": "45.57167000",
                        "longitude": "13.79250000"
                    },
                    {
                        "id": 104288,
                        "name": "Sv. Anton",
                        "latitude": "45.52583000",
                        "longitude": "13.83194000"
                    }
                ]
            },
            {
                "id": 4254,
                "name": "Kostanjevica na Krki Municipality",
                "state_code": "197",
                "cities": []
            },
            {
                "id": 4331,
                "name": "Kostel Municipality",
                "state_code": "165",
                "cities": [
                    {
                        "id": 104145,
                        "name": "Kostel",
                        "latitude": "45.50842000",
                        "longitude": "14.91005000"
                    }
                ]
            },
            {
                "id": 4186,
                "name": "Kozje Municipality",
                "state_code": "051",
                "cities": [
                    {
                        "id": 104148,
                        "name": "Kozje",
                        "latitude": "46.07500000",
                        "longitude": "15.56028000"
                    }
                ]
            },
            {
                "id": 4287,
                "name": "Kranj City Municipality",
                "state_code": "052",
                "cities": [
                    {
                        "id": 104077,
                        "name": "Britof",
                        "latitude": "46.26024000",
                        "longitude": "14.39037000"
                    },
                    {
                        "id": 104105,
                        "name": "Golnik",
                        "latitude": "46.33333000",
                        "longitude": "14.33333000"
                    },
                    {
                        "id": 104139,
                        "name": "Kokrica",
                        "latitude": "46.27028000",
                        "longitude": "14.36111000"
                    },
                    {
                        "id": 104150,
                        "name": "Kranj",
                        "latitude": "46.23887000",
                        "longitude": "14.35561000"
                    },
                    {
                        "id": 104193,
                        "name": "Mlaka pri Kranju",
                        "latitude": "46.28333000",
                        "longitude": "14.35000000"
                    },
                    {
                        "id": 104330,
                        "name": "Zgornje Bitnje",
                        "latitude": "46.22000000",
                        "longitude": "14.33667000"
                    }
                ]
            },
            {
                "id": 4340,
                "name": "Kranjska Gora Municipality",
                "state_code": "053",
                "cities": [
                    {
                        "id": 104151,
                        "name": "Kranjska Gora",
                        "latitude": "46.45689000",
                        "longitude": "13.77824000"
                    },
                    {
                        "id": 104194,
                        "name": "Mojstrana",
                        "latitude": "46.42383000",
                        "longitude": "13.87520000"
                    }
                ]
            },
            {
                "id": 4238,
                "name": "Kri≈æevci Municipality",
                "state_code": "166",
                "cities": [
                    {
                        "id": 104152,
                        "name": "Kri≈æevci pri Ljutomeru",
                        "latitude": "46.56833000",
                        "longitude": "16.13861000"
                    }
                ]
            },
            {
                "id": 4197,
                "name": "Kungota",
                "state_code": "055",
                "cities": [
                    {
                        "id": 104328,
                        "name": "Zgornja Kungota",
                        "latitude": "46.63917000",
                        "longitude": "15.61556000"
                    }
                ]
            },
            {
                "id": 4211,
                "name": "Kuzma Municipality",
                "state_code": "056",
                "cities": [
                    {
                        "id": 104156,
                        "name": "Kuzma",
                        "latitude": "46.83694000",
                        "longitude": "16.08333000"
                    }
                ]
            },
            {
                "id": 4338,
                "name": "La≈°ko Municipality",
                "state_code": "057",
                "cities": [
                    {
                        "id": 104158,
                        "name": "La≈°ko",
                        "latitude": "46.15463000",
                        "longitude": "15.23555000"
                    }
                ]
            },
            {
                "id": 4142,
                "name": "Lenart Municipality",
                "state_code": "058",
                "cities": [
                    {
                        "id": 104160,
                        "name": "Lenart v Slov. Goricah",
                        "latitude": "46.57611000",
                        "longitude": "15.83139000"
                    }
                ]
            },
            {
                "id": 4225,
                "name": "Lendava Municipality",
                "state_code": "059",
                "cities": [
                    {
                        "id": 104161,
                        "name": "Lendava",
                        "latitude": "46.56494000",
                        "longitude": "16.45091000"
                    }
                ]
            },
            {
                "id": 4347,
                "name": "Litija Municipality",
                "state_code": "060",
                "cities": [
                    {
                        "id": 104167,
                        "name": "Litija",
                        "latitude": "46.05861000",
                        "longitude": "14.82250000"
                    }
                ]
            },
            {
                "id": 4270,
                "name": "Ljubljana City Municipality",
                "state_code": "061",
                "cities": [
                    {
                        "id": 104101,
                        "name": "Dravlje District",
                        "latitude": "46.07290000",
                        "longitude": "14.44741000"
                    },
                    {
                        "id": 104129,
                        "name": "Jar≈°e District",
                        "latitude": "46.07345000",
                        "longitude": "14.55431000"
                    },
                    {
                        "id": 104169,
                        "name": "Ljubljana",
                        "latitude": "46.05108000",
                        "longitude": "14.50513000"
                    },
                    {
                        "id": 104211,
                        "name": "Opƒçina Ljubljana-Be≈æigrad",
                        "latitude": "46.08333000",
                        "longitude": "14.53333000"
                    },
                    {
                        "id": 104212,
                        "name": "Op≈°tina Ljubljana-Center",
                        "latitude": "46.05000000",
                        "longitude": "14.53333000"
                    },
                    {
                        "id": 104213,
                        "name": "Op≈°tina Ljubljana-Moste-Polje",
                        "latitude": "46.06667000",
                        "longitude": "14.61667000"
                    },
                    {
                        "id": 104262,
                        "name": "Ro≈ænik District",
                        "latitude": "46.05999000",
                        "longitude": "14.46779000"
                    },
                    {
                        "id": 104349,
                        "name": "≈†entvid District",
                        "latitude": "46.10559000",
                        "longitude": "14.43329000"
                    },
                    {
                        "id": 104278,
                        "name": "Sostro District",
                        "latitude": "46.04341000",
                        "longitude": "14.67293000"
                    },
                    {
                        "id": 104300,
                        "name": "Trnovo District",
                        "latitude": "46.02412000",
                        "longitude": "14.48891000"
                    },
                    {
                        "id": 104315,
                        "name": "Viƒç District",
                        "latitude": "46.00779000",
                        "longitude": "14.46968000"
                    }
                ]
            },
            {
                "id": 4294,
                "name": "Ljubno Municipality",
                "state_code": "062",
                "cities": [
                    {
                        "id": 104170,
                        "name": "Ljubno ob Savinji",
                        "latitude": "46.34358000",
                        "longitude": "14.83377000"
                    }
                ]
            },
            {
                "id": 4351,
                "name": "Ljutomer Municipality",
                "state_code": "063",
                "cities": [
                    {
                        "id": 104171,
                        "name": "Ljutomer",
                        "latitude": "46.52083000",
                        "longitude": "16.19750000"
                    }
                ]
            },
            {
                "id": 4306,
                "name": "Log‚ÄìDragomer Municipality",
                "state_code": "208",
                "cities": []
            },
            {
                "id": 4350,
                "name": "Logatec Municipality",
                "state_code": "064",
                "cities": [
                    {
                        "id": 104173,
                        "name": "Logatec",
                        "latitude": "45.91444000",
                        "longitude": "14.22583000"
                    }
                ]
            },
            {
                "id": 4174,
                "name": "Lo≈°ka Dolina Municipality",
                "state_code": "065",
                "cities": [
                    {
                        "id": 104163,
                        "name": "Leskova Dolina",
                        "latitude": "45.62139000",
                        "longitude": "14.46056000"
                    }
                ]
            },
            {
                "id": 4158,
                "name": "Lo≈°ki Potok Municipality",
                "state_code": "066",
                "cities": [
                    {
                        "id": 104119,
                        "name": "Hrib-Lo≈°ki Potok",
                        "latitude": "45.70688000",
                        "longitude": "14.61674000"
                    }
                ]
            },
            {
                "id": 4156,
                "name": "Lovrenc na Pohorju Municipality",
                "state_code": "167",
                "cities": [
                    {
                        "id": 104175,
                        "name": "Lovrenc na Pohorju",
                        "latitude": "46.54056000",
                        "longitude": "15.39306000"
                    }
                ]
            },
            {
                "id": 4219,
                "name": "Luƒçe Municipality",
                "state_code": "067",
                "cities": [
                    {
                        "id": 104178,
                        "name": "Luƒçe",
                        "latitude": "46.35611000",
                        "longitude": "14.74667000"
                    }
                ]
            },
            {
                "id": 4302,
                "name": "Lukovica Municipality",
                "state_code": "068",
                "cities": [
                    {
                        "id": 104177,
                        "name": "Lukovica pri Dom≈æalah",
                        "latitude": "46.16988000",
                        "longitude": "14.69179000"
                    }
                ]
            },
            {
                "id": 4157,
                "name": "Maj≈°perk Municipality",
                "state_code": "069",
                "cities": [
                    {
                        "id": 104179,
                        "name": "Maj≈°perk",
                        "latitude": "46.35167000",
                        "longitude": "15.73361000"
                    }
                ]
            },
            {
                "id": 4224,
                "name": "Makole Municipality",
                "state_code": "198",
                "cities": []
            },
            {
                "id": 4242,
                "name": "Maribor City Municipality",
                "state_code": "070",
                "cities": [
                    {
                        "id": 104074,
                        "name": "Bresternica",
                        "latitude": "46.56972000",
                        "longitude": "15.57500000"
                    },
                    {
                        "id": 104132,
                        "name": "Kamnica",
                        "latitude": "46.57444000",
                        "longitude": "15.61417000"
                    },
                    {
                        "id": 104165,
                        "name": "Limbu≈°",
                        "latitude": "46.55361000",
                        "longitude": "15.58361000"
                    },
                    {
                        "id": 104181,
                        "name": "Maribor",
                        "latitude": "46.55472000",
                        "longitude": "15.64667000"
                    },
                    {
                        "id": 104219,
                        "name": "Pekre",
                        "latitude": "46.54722000",
                        "longitude": "15.59556000"
                    },
                    {
                        "id": 104251,
                        "name": "Razvanje",
                        "latitude": "46.51444000",
                        "longitude": "15.63611000"
                    }
                ]
            },
            {
                "id": 4244,
                "name": "Markovci Municipality",
                "state_code": "168",
                "cities": [
                    {
                        "id": 104182,
                        "name": "Markovci",
                        "latitude": "46.39557000",
                        "longitude": "15.92831000"
                    }
                ]
            },
            {
                "id": 4349,
                "name": "Medvode Municipality",
                "state_code": "071",
                "cities": [
                    {
                        "id": 104183,
                        "name": "Medvode",
                        "latitude": "46.14220000",
                        "longitude": "14.41114000"
                    },
                    {
                        "id": 104215,
                        "name": "Op≈°tina [historical] Ljubljana-≈†i≈°ka",
                        "latitude": "46.16667000",
                        "longitude": "14.43333000"
                    },
                    {
                        "id": 104333,
                        "name": "Zgornje Pirniƒçe",
                        "latitude": "46.14251000",
                        "longitude": "14.43158000"
                    }
                ]
            },
            {
                "id": 4348,
                "name": "Menge≈° Municipality",
                "state_code": "072",
                "cities": [
                    {
                        "id": 104185,
                        "name": "Menge≈°",
                        "latitude": "46.16694000",
                        "longitude": "14.57500000"
                    },
                    {
                        "id": 104235,
                        "name": "Preserje pri Radomljah",
                        "latitude": "46.16911000",
                        "longitude": "14.59698000"
                    }
                ]
            },
            {
                "id": 4323,
                "name": "Metlika Municipality",
                "state_code": "073",
                "cities": [
                    {
                        "id": 104186,
                        "name": "Metlika",
                        "latitude": "45.64722000",
                        "longitude": "15.31417000"
                    }
                ]
            },
            {
                "id": 4265,
                "name": "Me≈æica Municipality",
                "state_code": "074",
                "cities": [
                    {
                        "id": 104187,
                        "name": "Me≈æica",
                        "latitude": "46.52139000",
                        "longitude": "14.85444000"
                    }
                ]
            },
            {
                "id": 4223,
                "name": "Miklav≈æ na Dravskem Polju Municipality",
                "state_code": "169",
                "cities": [
                    {
                        "id": 104188,
                        "name": "Miklav≈æ na Dravskem Polju",
                        "latitude": "46.50583000",
                        "longitude": "15.69722000"
                    }
                ]
            },
            {
                "id": 4220,
                "name": "Miren‚ÄìKostanjevica Municipality",
                "state_code": "075",
                "cities": [
                    {
                        "id": 104065,
                        "name": "Bilje",
                        "latitude": "45.89444000",
                        "longitude": "13.63222000"
                    },
                    {
                        "id": 104189,
                        "name": "Miren",
                        "latitude": "45.89556000",
                        "longitude": "13.60750000"
                    }
                ]
            },
            {
                "id": 4298,
                "name": "Mirna Municipality",
                "state_code": "212",
                "cities": []
            },
            {
                "id": 4237,
                "name": "Mirna Peƒç Municipality",
                "state_code": "170",
                "cities": [
                    {
                        "id": 104191,
                        "name": "Mirna Peƒç",
                        "latitude": "45.86028000",
                        "longitude": "15.08333000"
                    }
                ]
            },
            {
                "id": 4212,
                "name": "Mislinja Municipality",
                "state_code": "076",
                "cities": [
                    {
                        "id": 104192,
                        "name": "Mislinja",
                        "latitude": "46.44141000",
                        "longitude": "15.20027000"
                    }
                ]
            },
            {
                "id": 4297,
                "name": "Mokronog‚ÄìTrebelno Municipality",
                "state_code": "199",
                "cities": []
            },
            {
                "id": 4168,
                "name": "Moravƒçe Municipality",
                "state_code": "077",
                "cities": [
                    {
                        "id": 104197,
                        "name": "Moravƒçe",
                        "latitude": "46.13694000",
                        "longitude": "14.74500000"
                    }
                ]
            },
            {
                "id": 4218,
                "name": "Moravske Toplice Municipality",
                "state_code": "078",
                "cities": [
                    {
                        "id": 104196,
                        "name": "Moravske Toplice",
                        "latitude": "46.68313000",
                        "longitude": "16.22080000"
                    }
                ]
            },
            {
                "id": 4190,
                "name": "Mozirje Municipality",
                "state_code": "079",
                "cities": [
                    {
                        "id": 104200,
                        "name": "Mozirje",
                        "latitude": "46.33944000",
                        "longitude": "14.96333000"
                    }
                ]
            },
            {
                "id": 4318,
                "name": "Municipality of Apaƒçe",
                "state_code": "195",
                "cities": [
                    {
                        "id": 104061,
                        "name": "Apaƒçe",
                        "latitude": "46.69722000",
                        "longitude": "15.91056000"
                    }
                ]
            },
            {
                "id": 4309,
                "name": "Municipality of Cirkulane",
                "state_code": "196",
                "cities": []
            },
            {
                "id": 4344,
                "name": "Municipality of Ilirska Bistrica",
                "state_code": "038",
                "cities": [
                    {
                        "id": 104124,
                        "name": "Ilirska Bistrica",
                        "latitude": "45.56757000",
                        "longitude": "14.24571000"
                    }
                ]
            },
            {
                "id": 4314,
                "name": "Municipality of Kr≈°ko",
                "state_code": "054",
                "cities": [
                    {
                        "id": 104155,
                        "name": "Kr≈°ko",
                        "latitude": "45.95915000",
                        "longitude": "15.49167000"
                    },
                    {
                        "id": 104164,
                        "name": "Leskovec pri Kr≈°kem",
                        "latitude": "45.93566000",
                        "longitude": "15.47184000"
                    },
                    {
                        "id": 104267,
                        "name": "Senovo",
                        "latitude": "46.02361000",
                        "longitude": "15.47694000"
                    }
                ]
            },
            {
                "id": 4187,
                "name": "Municipality of ≈†kofljica",
                "state_code": "123",
                "cities": [
                    {
                        "id": 104157,
                        "name": "Lavrica",
                        "latitude": "46.00002000",
                        "longitude": "14.55730000"
                    },
                    {
                        "id": 104354,
                        "name": "≈†kofljica",
                        "latitude": "45.98333000",
                        "longitude": "14.57667000"
                    }
                ]
            },
            {
                "id": 4313,
                "name": "Murska Sobota City Municipality",
                "state_code": "080",
                "cities": [
                    {
                        "id": 104062,
                        "name": "Bakovci",
                        "latitude": "46.61889000",
                        "longitude": "16.15028000"
                    },
                    {
                        "id": 104336,
                        "name": "ƒåernelavci",
                        "latitude": "46.66667000",
                        "longitude": "16.13333000"
                    },
                    {
                        "id": 104153,
                        "name": "Krog",
                        "latitude": "46.63806000",
                        "longitude": "16.14139000"
                    },
                    {
                        "id": 104201,
                        "name": "Murska Sobota",
                        "latitude": "46.66250000",
                        "longitude": "16.16639000"
                    },
                    {
                        "id": 104247,
                        "name": "Rakiƒçan",
                        "latitude": "46.65167000",
                        "longitude": "16.20417000"
                    }
                ]
            },
            {
                "id": 4208,
                "name": "Muta Municipality",
                "state_code": "081",
                "cities": [
                    {
                        "id": 104202,
                        "name": "Muta",
                        "latitude": "46.61139000",
                        "longitude": "15.16611000"
                    }
                ]
            },
            {
                "id": 4177,
                "name": "Naklo Municipality",
                "state_code": "082",
                "cities": [
                    {
                        "id": 104203,
                        "name": "Naklo",
                        "latitude": "46.27278000",
                        "longitude": "14.31722000"
                    }
                ]
            },
            {
                "id": 4329,
                "name": "Nazarje Municipality",
                "state_code": "083",
                "cities": [
                    {
                        "id": 104204,
                        "name": "Nazarje",
                        "latitude": "46.31757000",
                        "longitude": "14.94674000"
                    }
                ]
            },
            {
                "id": 4205,
                "name": "Nova Gorica City Municipality",
                "state_code": "084",
                "cities": [
                    {
                        "id": 104154,
                        "name": "Kromberk",
                        "latitude": "45.96083000",
                        "longitude": "13.66556000"
                    },
                    {
                        "id": 104206,
                        "name": "Nova Gorica",
                        "latitude": "45.95604000",
                        "longitude": "13.64837000"
                    },
                    {
                        "id": 104237,
                        "name": "Prvaƒçina",
                        "latitude": "45.89000000",
                        "longitude": "13.71806000"
                    },
                    {
                        "id": 104342,
                        "name": "≈†empas",
                        "latitude": "45.93028000",
                        "longitude": "13.74361000"
                    },
                    {
                        "id": 104276,
                        "name": "Solkan",
                        "latitude": "45.97139000",
                        "longitude": "13.64944000"
                    }
                ]
            },
            {
                "id": 4320,
                "name": "Odranci Municipality",
                "state_code": "086",
                "cities": [
                    {
                        "id": 104209,
                        "name": "Odranci",
                        "latitude": "46.58667000",
                        "longitude": "16.28028000"
                    }
                ]
            },
            {
                "id": 4143,
                "name": "Oplotnica",
                "state_code": "171",
                "cities": [
                    {
                        "id": 104210,
                        "name": "Oplotnica",
                        "latitude": "46.38778000",
                        "longitude": "15.44667000"
                    }
                ]
            },
            {
                "id": 4221,
                "name": "Ormo≈æ Municipality",
                "state_code": "087",
                "cities": [
                    {
                        "id": 104216,
                        "name": "Ormo≈æ",
                        "latitude": "46.41139000",
                        "longitude": "16.15444000"
                    }
                ]
            },
            {
                "id": 4199,
                "name": "Osilnica Municipality",
                "state_code": "088",
                "cities": [
                    {
                        "id": 104217,
                        "name": "Osilnica",
                        "latitude": "45.52914000",
                        "longitude": "14.69838000"
                    }
                ]
            },
            {
                "id": 4172,
                "name": "Pesnica Municipality",
                "state_code": "089",
                "cities": [
                    {
                        "id": 104220,
                        "name": "Pesnica pri Mariboru",
                        "latitude": "46.60694000",
                        "longitude": "15.67667000"
                    }
                ]
            },
            {
                "id": 4201,
                "name": "Piran Municipality",
                "state_code": "090",
                "cities": [
                    {
                        "id": 104176,
                        "name": "Lucija",
                        "latitude": "45.50526000",
                        "longitude": "13.60240000"
                    },
                    {
                        "id": 104221,
                        "name": "Piran",
                        "latitude": "45.52778000",
                        "longitude": "13.57056000"
                    },
                    {
                        "id": 104229,
                        "name": "Portoro≈æ",
                        "latitude": "45.51429000",
                        "longitude": "13.59206000"
                    },
                    {
                        "id": 104269,
                        "name": "Seƒça",
                        "latitude": "45.49584000",
                        "longitude": "13.61466000"
                    }
                ]
            },
            {
                "id": 4184,
                "name": "Pivka Municipality",
                "state_code": "091",
                "cities": [
                    {
                        "id": 104222,
                        "name": "Pivka",
                        "latitude": "45.68292000",
                        "longitude": "14.19588000"
                    }
                ]
            },
            {
                "id": 4146,
                "name": "Podƒçetrtek Municipality",
                "state_code": "092",
                "cities": [
                    {
                        "id": 104226,
                        "name": "Podƒçetrtek",
                        "latitude": "46.15694000",
                        "longitude": "15.59861000"
                    }
                ]
            },
            {
                "id": 4161,
                "name": "Podlehnik Municipality",
                "state_code": "172",
                "cities": [
                    {
                        "id": 104224,
                        "name": "Podlehnik",
                        "latitude": "46.33528000",
                        "longitude": "15.88000000"
                    }
                ]
            },
            {
                "id": 4234,
                "name": "Podvelka Municipality",
                "state_code": "093",
                "cities": [
                    {
                        "id": 104225,
                        "name": "Podvelka",
                        "latitude": "46.58694000",
                        "longitude": "15.33056000"
                    }
                ]
            },
            {
                "id": 4239,
                "name": "Poljƒçane Municipality",
                "state_code": "200",
                "cities": []
            },
            {
                "id": 4272,
                "name": "Polzela Municipality",
                "state_code": "173",
                "cities": [
                    {
                        "id": 104228,
                        "name": "Polzela",
                        "latitude": "46.28333000",
                        "longitude": "15.06667000"
                    }
                ]
            },
            {
                "id": 4330,
                "name": "Postojna Municipality",
                "state_code": "094",
                "cities": [
                    {
                        "id": 104230,
                        "name": "Postojna",
                        "latitude": "45.77435000",
                        "longitude": "14.21528000"
                    }
                ]
            },
            {
                "id": 4188,
                "name": "Prebold Municipality",
                "state_code": "174",
                "cities": [
                    {
                        "id": 104233,
                        "name": "Prebold",
                        "latitude": "46.23694000",
                        "longitude": "15.09250000"
                    }
                ]
            },
            {
                "id": 4303,
                "name": "Preddvor Municipality",
                "state_code": "095",
                "cities": [
                    {
                        "id": 104234,
                        "name": "Preddvor",
                        "latitude": "46.30250000",
                        "longitude": "14.42306000"
                    }
                ]
            },
            {
                "id": 4274,
                "name": "Prevalje Municipality",
                "state_code": "175",
                "cities": [
                    {
                        "id": 104236,
                        "name": "Prevalje",
                        "latitude": "46.54694000",
                        "longitude": "14.92083000"
                    }
                ]
            },
            {
                "id": 4228,
                "name": "Ptuj City Municipality",
                "state_code": "096",
                "cities": [
                    {
                        "id": 104238,
                        "name": "Ptuj",
                        "latitude": "46.42005000",
                        "longitude": "15.87018000"
                    }
                ]
            },
            {
                "id": 4288,
                "name": "Puconci Municipality",
                "state_code": "097",
                "cities": [
                    {
                        "id": 104239,
                        "name": "Puconci",
                        "latitude": "46.70667000",
                        "longitude": "16.15639000"
                    }
                ]
            },
            {
                "id": 4204,
                "name": "Raƒçe‚ÄìFram Municipality",
                "state_code": "098",
                "cities": [
                    {
                        "id": 104103,
                        "name": "Fram",
                        "latitude": "46.45600000",
                        "longitude": "15.63007000"
                    },
                    {
                        "id": 104198,
                        "name": "Morje",
                        "latitude": "46.44444000",
                        "longitude": "15.62139000"
                    },
                    {
                        "id": 104252,
                        "name": "Raƒçe",
                        "latitude": "46.45194000",
                        "longitude": "15.68139000"
                    }
                ]
            },
            {
                "id": 4195,
                "name": "Radeƒçe Municipality",
                "state_code": "099",
                "cities": [
                    {
                        "id": 104241,
                        "name": "Radeƒçe",
                        "latitude": "46.06806000",
                        "longitude": "15.18389000"
                    }
                ]
            },
            {
                "id": 4292,
                "name": "Radenci Municipality",
                "state_code": "100",
                "cities": [
                    {
                        "id": 104240,
                        "name": "Radenci",
                        "latitude": "46.64201000",
                        "longitude": "16.03781000"
                    }
                ]
            },
            {
                "id": 4275,
                "name": "Radlje ob Dravi Municipality",
                "state_code": "101",
                "cities": [
                    {
                        "id": 104243,
                        "name": "Radlje ob Dravi",
                        "latitude": "46.61417000",
                        "longitude": "15.22639000"
                    }
                ]
            },
            {
                "id": 4231,
                "name": "Radovljica Municipality",
                "state_code": "102",
                "cities": [
                    {
                        "id": 104162,
                        "name": "Lesce",
                        "latitude": "46.36111000",
                        "longitude": "14.15778000"
                    },
                    {
                        "id": 104245,
                        "name": "Radovljica",
                        "latitude": "46.34444000",
                        "longitude": "14.17444000"
                    }
                ]
            },
            {
                "id": 4155,
                "name": "Ravne na Koro≈°kem Municipality",
                "state_code": "103",
                "cities": [
                    {
                        "id": 104146,
                        "name": "Kotlje",
                        "latitude": "46.52139000",
                        "longitude": "14.98694000"
                    },
                    {
                        "id": 104249,
                        "name": "Ravne na Koro≈°kem",
                        "latitude": "46.54306000",
                        "longitude": "14.96917000"
                    }
                ]
            },
            {
                "id": 4206,
                "name": "Razkri≈æje Municipality",
                "state_code": "176",
                "cities": [
                    {
                        "id": 104250,
                        "name": "Razkri≈æje",
                        "latitude": "46.52167000",
                        "longitude": "16.28111000"
                    }
                ]
            },
            {
                "id": 4160,
                "name": "Reƒçica ob Savinji Municipality",
                "state_code": "209",
                "cities": []
            },
            {
                "id": 4253,
                "name": "Renƒçe‚ÄìVogrsko Municipality",
                "state_code": "201",
                "cities": [
                    {
                        "id": 104253,
                        "name": "Renƒçe",
                        "latitude": "45.89000000",
                        "longitude": "13.66861000"
                    },
                    {
                        "id": 104319,
                        "name": "Volƒçja Draga",
                        "latitude": "45.90694000",
                        "longitude": "13.67750000"
                    }
                ]
            },
            {
                "id": 4235,
                "name": "Ribnica Municipality",
                "state_code": "104",
                "cities": [
                    {
                        "id": 104255,
                        "name": "Ribnica",
                        "latitude": "45.73861000",
                        "longitude": "14.72750000"
                    }
                ]
            },
            {
                "id": 4207,
                "name": "Ribnica na Pohorju Municipality",
                "state_code": "177",
                "cities": [
                    {
                        "id": 104256,
                        "name": "Ribnica na Pohorju",
                        "latitude": "46.53500000",
                        "longitude": "15.27278000"
                    }
                ]
            },
            {
                "id": 4233,
                "name": "Roga≈°ka Slatina Municipality",
                "state_code": "106",
                "cities": [
                    {
                        "id": 104258,
                        "name": "Roga≈°ka Slatina",
                        "latitude": "46.23750000",
                        "longitude": "15.63972000"
                    }
                ]
            },
            {
                "id": 4264,
                "name": "Roga≈°ovci Municipality",
                "state_code": "105",
                "cities": [
                    {
                        "id": 104259,
                        "name": "Roga≈°ovci",
                        "latitude": "46.80000000",
                        "longitude": "16.03333000"
                    }
                ]
            },
            {
                "id": 4209,
                "name": "Rogatec Municipality",
                "state_code": "107",
                "cities": [
                    {
                        "id": 104257,
                        "name": "Rogatec",
                        "latitude": "46.22944000",
                        "longitude": "15.70028000"
                    }
                ]
            },
            {
                "id": 4280,
                "name": "Ru≈°e Municipality",
                "state_code": "108",
                "cities": [
                    {
                        "id": 104066,
                        "name": "Bistrica ob Dravi",
                        "latitude": "46.55419000",
                        "longitude": "15.54855000"
                    },
                    {
                        "id": 104263,
                        "name": "Ru≈°e",
                        "latitude": "46.53944000",
                        "longitude": "15.51583000"
                    }
                ]
            },
            {
                "id": 4222,
                "name": "≈†alovci Municipality",
                "state_code": "033",
                "cities": [
                    {
                        "id": 104341,
                        "name": "≈†alovci",
                        "latitude": "46.82500000",
                        "longitude": "16.29806000"
                    }
                ]
            },
            {
                "id": 4230,
                "name": "Selnica ob Dravi Municipality",
                "state_code": "178",
                "cities": [
                    {
                        "id": 104264,
                        "name": "Selnica ob Dravi",
                        "latitude": "46.55000000",
                        "longitude": "15.49500000"
                    }
                ]
            },
            {
                "id": 4346,
                "name": "Semiƒç Municipality",
                "state_code": "109",
                "cities": [
                    {
                        "id": 104266,
                        "name": "Semiƒç",
                        "latitude": "45.64611000",
                        "longitude": "15.18222000"
                    }
                ]
            },
            {
                "id": 4317,
                "name": "≈†empeter‚ÄìVrtojba Municipality",
                "state_code": "183",
                "cities": [
                    {
                        "id": 104261,
                        "name": "Ro≈æna Dolina",
                        "latitude": "45.94194000",
                        "longitude": "13.66779000"
                    },
                    {
                        "id": 104343,
                        "name": "≈†empeter pri Gorici",
                        "latitude": "45.92750000",
                        "longitude": "13.64111000"
                    },
                    {
                        "id": 104322,
                        "name": "Vrtojba",
                        "latitude": "45.91250000",
                        "longitude": "13.63417000"
                    }
                ]
            },
            {
                "id": 4299,
                "name": "≈†enƒçur Municipality",
                "state_code": "117",
                "cities": [
                    {
                        "id": 104117,
                        "name": "Hrastje",
                        "latitude": "46.21667000",
                        "longitude": "14.40000000"
                    },
                    {
                        "id": 104351,
                        "name": "≈†enƒçur",
                        "latitude": "46.24556000",
                        "longitude": "14.41972000"
                    }
                ]
            },
            {
                "id": 4324,
                "name": "≈†entilj Municipality",
                "state_code": "118",
                "cities": [
                    {
                        "id": 104265,
                        "name": "Selnica ob Muri",
                        "latitude": "46.68333000",
                        "longitude": "15.70000000"
                    },
                    {
                        "id": 104345,
                        "name": "≈†entilj v Slov. Goricah",
                        "latitude": "46.68167000",
                        "longitude": "15.64806000"
                    }
                ]
            },
            {
                "id": 4241,
                "name": "≈†entjernej Municipality",
                "state_code": "119",
                "cities": [
                    {
                        "id": 104346,
                        "name": "≈†entjernej",
                        "latitude": "45.84000000",
                        "longitude": "15.33611000"
                    }
                ]
            },
            {
                "id": 4171,
                "name": "≈†entjur Municipality",
                "state_code": "120",
                "cities": [
                    {
                        "id": 104347,
                        "name": "≈†entjur",
                        "latitude": "46.21722000",
                        "longitude": "15.39750000"
                    }
                ]
            },
            {
                "id": 4311,
                "name": "≈†entrupert Municipality",
                "state_code": "211",
                "cities": [
                    {
                        "id": 104348,
                        "name": "≈†entrupert",
                        "latitude": "45.97778000",
                        "longitude": "15.09556000"
                    }
                ]
            },
            {
                "id": 4268,
                "name": "Sevnica Municipality",
                "state_code": "110",
                "cities": [
                    {
                        "id": 104268,
                        "name": "Sevnica",
                        "latitude": "46.00778000",
                        "longitude": "15.31556000"
                    }
                ]
            },
            {
                "id": 4149,
                "name": "Se≈æana Municipality",
                "state_code": "111",
                "cities": [
                    {
                        "id": 104270,
                        "name": "Se≈æana",
                        "latitude": "45.70924000",
                        "longitude": "13.87333000"
                    }
                ]
            },
            {
                "id": 4170,
                "name": "≈†kocjan Municipality",
                "state_code": "121",
                "cities": [
                    {
                        "id": 104352,
                        "name": "≈†kocjan",
                        "latitude": "45.90667000",
                        "longitude": "15.29139000"
                    }
                ]
            },
            {
                "id": 4316,
                "name": "≈†kofja Loka Municipality",
                "state_code": "122",
                "cities": [
                    {
                        "id": 104353,
                        "name": "≈†kofja Loka",
                        "latitude": "46.16551000",
                        "longitude": "14.30626000"
                    },
                    {
                        "id": 104289,
                        "name": "Sv. Duh",
                        "latitude": "46.18333000",
                        "longitude": "14.33333000"
                    }
                ]
            },
            {
                "id": 4169,
                "name": "Slovenj Gradec City Municipality",
                "state_code": "112",
                "cities": [
                    {
                        "id": 104159,
                        "name": "Legen",
                        "latitude": "46.50651000",
                        "longitude": "15.14424000"
                    },
                    {
                        "id": 104218,
                        "name": "Pameƒçe",
                        "latitude": "46.53417000",
                        "longitude": "15.07917000"
                    },
                    {
                        "id": 104271,
                        "name": "Slovenj Gradec",
                        "latitude": "46.51028000",
                        "longitude": "15.08056000"
                    },
                    {
                        "id": 104361,
                        "name": "≈†martno pri Slovenj Gradcu",
                        "latitude": "46.48944000",
                        "longitude": "15.10667000"
                    }
                ]
            },
            {
                "id": 4332,
                "name": "Slovenska Bistrica Municipality",
                "state_code": "113",
                "cities": [
                    {
                        "id": 104232,
                        "name": "Pragersko",
                        "latitude": "46.39667000",
                        "longitude": "15.66000000"
                    },
                    {
                        "id": 104272,
                        "name": "Slovenska Bistrica",
                        "latitude": "46.39278000",
                        "longitude": "15.57444000"
                    },
                    {
                        "id": 104329,
                        "name": "Zgornja Polskava",
                        "latitude": "46.42556000",
                        "longitude": "15.61222000"
                    }
                ]
            },
            {
                "id": 4198,
                "name": "Slovenske Konjice Municipality",
                "state_code": "114",
                "cities": [
                    {
                        "id": 104273,
                        "name": "Slovenske Konjice",
                        "latitude": "46.33667000",
                        "longitude": "15.42583000"
                    }
                ]
            },
            {
                "id": 4285,
                "name": "≈†marje pri Jel≈°ah Municipality",
                "state_code": "124",
                "cities": [
                    {
                        "id": 104356,
                        "name": "≈†marje pri Jel≈°ah",
                        "latitude": "46.22722000",
                        "longitude": "15.51917000"
                    }
                ]
            },
            {
                "id": 4289,
                "name": "≈†marje≈°ke Toplice Municipality",
                "state_code": "206",
                "cities": [
                    {
                        "id": 104358,
                        "name": "≈†marjeta",
                        "latitude": "45.88333000",
                        "longitude": "15.25000000"
                    }
                ]
            },
            {
                "id": 4296,
                "name": "≈†martno ob Paki Municipality",
                "state_code": "125",
                "cities": [
                    {
                        "id": 104359,
                        "name": "≈†martno ob Paki",
                        "latitude": "46.33333000",
                        "longitude": "15.03333000"
                    }
                ]
            },
            {
                "id": 4279,
                "name": "≈†martno pri Litiji Municipality",
                "state_code": "194",
                "cities": [
                    {
                        "id": 104360,
                        "name": "≈†martno pri Litiji",
                        "latitude": "46.04444000",
                        "longitude": "14.84417000"
                    }
                ]
            },
            {
                "id": 4277,
                "name": "Sodra≈æica Municipality",
                "state_code": "179",
                "cities": [
                    {
                        "id": 104275,
                        "name": "Sodra≈æica",
                        "latitude": "45.76111000",
                        "longitude": "14.63556000"
                    }
                ]
            },
            {
                "id": 4261,
                "name": "Solƒçava Municipality",
                "state_code": "180",
                "cities": [
                    {
                        "id": 104277,
                        "name": "Solƒçava",
                        "latitude": "46.41944000",
                        "longitude": "14.69361000"
                    }
                ]
            },
            {
                "id": 4248,
                "name": "≈†o≈°tanj Municipality",
                "state_code": "126",
                "cities": [
                    {
                        "id": 104248,
                        "name": "Ravne",
                        "latitude": "46.41413000",
                        "longitude": "15.06087000"
                    },
                    {
                        "id": 104362,
                        "name": "≈†o≈°tanj",
                        "latitude": "46.38000000",
                        "longitude": "15.04861000"
                    },
                    {
                        "id": 104296,
                        "name": "Topol≈°ica",
                        "latitude": "46.40028000",
                        "longitude": "15.02157000"
                    }
                ]
            },
            {
                "id": 4263,
                "name": "Sredi≈°ƒçe ob Dravi",
                "state_code": "202",
                "cities": [
                    {
                        "id": 104284,
                        "name": "Sredi≈°ƒçe ob Dravi",
                        "latitude": "46.39417000",
                        "longitude": "16.26806000"
                    }
                ]
            },
            {
                "id": 4259,
                "name": "Star≈°e Municipality",
                "state_code": "115",
                "cities": [
                    {
                        "id": 104285,
                        "name": "Star≈°e",
                        "latitude": "46.46583000",
                        "longitude": "15.76722000"
                    }
                ]
            },
            {
                "id": 4185,
                "name": "≈†tore Municipality",
                "state_code": "127",
                "cities": [
                    {
                        "id": 104363,
                        "name": "≈†tore",
                        "latitude": "46.22083000",
                        "longitude": "15.31389000"
                    }
                ]
            },
            {
                "id": 4333,
                "name": "Stra≈æa Municipality",
                "state_code": "203",
                "cities": [
                    {
                        "id": 104286,
                        "name": "Stra≈æa",
                        "latitude": "45.78000000",
                        "longitude": "15.07278000"
                    }
                ]
            },
            {
                "id": 4164,
                "name": "Sveta Ana Municipality",
                "state_code": "181",
                "cities": [
                    {
                        "id": 104287,
                        "name": "Sv. Ana v Slov. Goricah",
                        "latitude": "46.64917000",
                        "longitude": "15.84417000"
                    }
                ]
            },
            {
                "id": 4260,
                "name": "Sveta Trojica v Slovenskih Goricah Municipality",
                "state_code": "204",
                "cities": [
                    {
                        "id": 104290,
                        "name": "Sv. Trojica v Slov. Goricah",
                        "latitude": "46.57667000",
                        "longitude": "15.87694000"
                    }
                ]
            },
            {
                "id": 4229,
                "name": "Sveti Andra≈æ v Slovenskih Goricah Municipality",
                "state_code": "182",
                "cities": [
                    {
                        "id": 104314,
                        "name": "Vitomarci",
                        "latitude": "46.52750000",
                        "longitude": "15.93944000"
                    }
                ]
            },
            {
                "id": 4255,
                "name": "Sveti Jurij ob ≈†ƒçavnici Municipality",
                "state_code": "116",
                "cities": []
            },
            {
                "id": 4328,
                "name": "Sveti Jurij v Slovenskih Goricah Municipality",
                "state_code": "210",
                "cities": [
                    {
                        "id": 104291,
                        "name": "Sveti Jurij ob ≈†ƒçavnici",
                        "latitude": "46.56950000",
                        "longitude": "16.02347000"
                    }
                ]
            },
            {
                "id": 4273,
                "name": "Sveti Toma≈æ Municipality",
                "state_code": "205",
                "cities": [
                    {
                        "id": 104292,
                        "name": "Sveti Toma≈æ",
                        "latitude": "46.48417000",
                        "longitude": "16.08361000"
                    }
                ]
            },
            {
                "id": 4194,
                "name": "Tabor Municipality",
                "state_code": "184",
                "cities": [
                    {
                        "id": 104293,
                        "name": "Tabor",
                        "latitude": "46.23611000",
                        "longitude": "15.01833000"
                    }
                ]
            },
            {
                "id": 4312,
                "name": "Ti≈°ina Municipality",
                "state_code": "010",
                "cities": [
                    {
                        "id": 104294,
                        "name": "Ti≈°ina",
                        "latitude": "46.65806000",
                        "longitude": "16.09167000"
                    }
                ]
            },
            {
                "id": 4247,
                "name": "Tolmin Municipality",
                "state_code": "128",
                "cities": [
                    {
                        "id": 104295,
                        "name": "Tolmin",
                        "latitude": "46.18304000",
                        "longitude": "13.73321000"
                    }
                ]
            },
            {
                "id": 4246,
                "name": "Trbovlje Municipality",
                "state_code": "129",
                "cities": [
                    {
                        "id": 104297,
                        "name": "Trbovlje",
                        "latitude": "46.15500000",
                        "longitude": "15.05333000"
                    }
                ]
            },